[{"address": {"address": "Akademick\u00e1 3", "town": {"town": "Nitra", "region": {"region": "Nitriansk\u00fd"}}, "lat": "48.3038957", "lon": "18.104094291887325"}, "type": {"type": "PLAST 1100 l"}, "garbageType": "plasty"}, {"address": {"address": "Akademick\u00e1 5", "town": {"town": "Nitra", "region": {"region": "Nitriansk\u00fd"}}, "lat": "48.3079342", "lon": "18.0985042"}, "type": {"type": "PLAST 1100 l"}, "garbageType": "plasty"}, {"address": {"address": "Akademick\u00e1 8", "town": {"town": "Nitra", "region": {"region": "Nitriansk\u00fd"}}, "lat": "48.3054377", "lon": "18.100561619710817"}, "type": {"type": "PLAST 1100 l"}, "garbageType": "plasty"}, {"address": {"address": "Akademick\u00e1 5", "town": {"town": "Nitra", "region": {"region": "Nitriansk\u00fd"}}, "lat": "48.3079342", "lon": "18.0985042"}, "type": {"type": "SKLO - ZVON"}, "garbageType": "sklo"}, {"address": {"address": "Alexyho 2", "town": {"town": "Nitra", "region": {"region": "Nitriansk\u00fd"}}, "lat": "48.30637895", "lon": "18.061988292138473"}, "type": {"type": "PLAST 1100 l"}, "garbageType": "plasty"}, {"address": {"address": "Alexyho 8", "town": {"town": "Nitra", "region": {"region": "Nitriansk\u00fd"}}, "lat": "48.30600535", "lon": "18.062464769189614"}, "type": {"type": "PLAST 1100 l"}, "garbageType": "plasty"}, {"address": {"address": "Alexyho 10", "town": {"town": "Nitra", "region": {"region": "Nitriansk\u00fd"}}, "lat": "48.30670365", "lon": "18.062554639443103"}, "type": {"type": "PLAST 1100 l"}, "garbageType": "plasty"}, {"address": {"address": "Alexyho 16", "town": {"town": "Nitra", "region": {"region": "Nitriansk\u00fd"}}, "lat": "48.30633015", "lon": "18.06303170599655"}, "type": {"type": "PLAST 1100 l"}, "garbageType": "plasty"}, {"address": {"address": "Alexyho 2", "town": {"town": "Nitra", "region": {"region": "Nitriansk\u00fd"}}, "lat": "48.30637895", "lon": "18.061988292138473"}, "type": {"type": "SKLO - ZVON"}, "garbageType": "sklo"}, {"address": {"address": "Alexyho 8", "town": {"town": "Nitra", "region": {"region": "Nitriansk\u00fd"}}, "lat": "48.30600535", "lon": "18.062464769189614"}, "type": {"type": "SKLO - ZVON"}, "garbageType": "sklo"}, {"address": {"address": "Alexyho 10", "town": {"town": "Nitra", "region": {"region": "Nitriansk\u00fd"}}, "lat": "48.30670365", "lon": "18.062554639443103"}, "type": {"type": "SKLO - ZVON"}, "garbageType": "sklo"}, {"address": {"address": "Alexyho 16", "town": {"town": "Nitra", "region": {"region": "Nitriansk\u00fd"}}, "lat": "48.30633015", "lon": "18.06303170599655"}, "type": {"type": "SKLO - ZVON"}, "garbageType": "sklo"}, {"address": {"address": "Bajkalsk\u00e1 3", "town": {"town": "Nitra - Chrenov\u00e1", "region": {"region": "Nitriansk\u00fd"}}, "lat": "48.30879735", "lon": "18.111259703165068"}, "type": {"type": "MOLOK SKLO 3m3"}, "garbageType": "sklo"}, {"address": {"address": "Bajkalsk\u00e1 4", "town": {"town": "Nitra - Chrenov\u00e1", "region": {"region": "Nitriansk\u00fd"}}, "lat": "48.3097836", "lon": "18.11179610455587"}, "type": {"type": "MOLOK SKLO 3m3"}, "garbageType": "sklo"}, {"address": {"address": "Bajkalsk\u00e1 3", "town": {"town": "Nitra - Chrenov\u00e1", "region": {"region": "Nitriansk\u00fd"}}, "lat": "48.30879735", "lon": "18.111259703165068"}, "type": {"type": "MOLOK PLAST 5m3"}, "garbageType": "plasty"}, {"address": {"address": "Bajkalsk\u00e1 4", "town": {"town": "Nitra - Chrenov\u00e1", "region": {"region": "Nitriansk\u00fd"}}, "lat": "48.3097836", "lon": "18.11179610455587"}, "type": {"type": "MOLOK PLAST 5m3"}, "garbageType": "plasty"}, {"address": {"address": "Bani\u010dova 1", "town": {"town": "Nitra", "region": {"region": "Nitriansk\u00fd"}}, "lat": "48.2999638", "lon": "18.061404269499317"}, "type": {"type": "PLAST 1100 l"}, "garbageType": "plasty"}, {"address": {"address": "Bani\u010dova 3", "town": {"town": "Nitra", "region": {"region": "Nitriansk\u00fd"}}, "lat": "48.299867250000005", "lon": "18.062052876314596"}, "type": {"type": "PLAST 1100 l"}, "garbageType": "plasty"}, {"address": {"address": "Bani\u010dova 10", "town": {"town": "Nitra", "region": {"region": "Nitriansk\u00fd"}}, "lat": "48.299114450000005", "lon": "18.059830764325845"}, "type": {"type": "PLAST 1100 l"}, "garbageType": "plasty"}, {"address": {"address": "Bani\u010dova 16", "town": {"town": "Nitra", "region": {"region": "Nitriansk\u00fd"}}, "lat": "48.3005646", "lon": "18.0600531"}, "type": {"type": "PLAST 1100 l"}, "garbageType": "plasty"}, {"address": {"address": "Bani\u010dova 12", "town": {"town": "Nitra", "region": {"region": "Nitriansk\u00fd"}}, "lat": "48.298549300000005", "lon": "18.060340935025287"}, "type": {"type": "PLAST 1100 l"}, "garbageType": "plasty"}, {"address": {"address": "Bani\u010dova 1", "town": {"town": "Nitra", "region": {"region": "Nitriansk\u00fd"}}, "lat": "48.2999638", "lon": "18.061404269499317"}, "type": {"type": "SKLO - ZVON"}, "garbageType": "sklo"}, {"address": {"address": "Bani\u010dova 2", "town": {"town": "Nitra", "region": {"region": "Nitriansk\u00fd"}}, "lat": "48.299897200000004", "lon": "18.06055689916343"}, "type": {"type": "SKLO - ZVON"}, "garbageType": "sklo"}, {"address": {"address": "Bani\u010dova 3", "town": {"town": "Nitra", "region": {"region": "Nitriansk\u00fd"}}, "lat": "48.299867250000005", "lon": "18.062052876314596"}, "type": {"type": "SKLO - ZVON"}, "garbageType": "sklo"}, {"address": {"address": "Bani\u010dova 10", "town": {"town": "Nitra", "region": {"region": "Nitriansk\u00fd"}}, "lat": "48.299114450000005", "lon": "18.059830764325845"}, "type": {"type": "SKLO - ZVON"}, "garbageType": "sklo"}, {"address": {"address": "Bani\u010dova 12", "town": {"town": "Nitra", "region": {"region": "Nitriansk\u00fd"}}, "lat": "48.298549300000005", "lon": "18.060340935025287"}, "type": {"type": "SKLO - ZVON"}, "garbageType": "sklo"}, {"address": {"address": "Bazovsk\u00e9ho 2", "town": {"town": "Nitra", "region": {"region": "Nitriansk\u00fd"}}, "lat": "48.3044452", "lon": "18.0578821"}, "type": {"type": "PLAST 1100 l"}, "garbageType": "plasty"}, {"address": {"address": "Bazovsk\u00e9ho 6", "town": {"town": "Nitra", "region": {"region": "Nitriansk\u00fd"}}, "lat": "48.3044452", "lon": "18.0578821"}, "type": {"type": "PLAST 1100 l"}, "garbageType": "plasty"}, {"address": {"address": "Bazovsk\u00e9ho 8", "town": {"town": "Nitra", "region": {"region": "Nitriansk\u00fd"}}, "lat": "48.3044452", "lon": "18.0578821"}, "type": {"type": "PLAST 1100 l"}, "garbageType": "plasty"}, {"address": {"address": "Bazovsk\u00e9ho 12", "town": {"town": "Nitra", "region": {"region": "Nitriansk\u00fd"}}, "lat": "48.3044452", "lon": "18.0578821"}, "type": {"type": "PLAST 1100 l"}, "garbageType": "plasty"}, {"address": {"address": "Bazovsk\u00e9ho 14", "town": {"town": "Nitra", "region": {"region": "Nitriansk\u00fd"}}, "lat": "48.3044452", "lon": "18.0578821"}, "type": {"type": "PLAST 1100 l"}, "garbageType": "plasty"}, {"address": {"address": "Bazovsk\u00e9ho 20", "town": {"town": "Nitra", "region": {"region": "Nitriansk\u00fd"}}, "lat": "48.3043938", "lon": "18.05936873527854"}, "type": {"type": "PLAST 1100 l"}, "garbageType": "plasty"}, {"address": {"address": "Bazovsk\u00e9ho 2", "town": {"town": "Nitra", "region": {"region": "Nitriansk\u00fd"}}, "lat": "48.3044452", "lon": "18.0578821"}, "type": {"type": "SKLO - ZVON"}, "garbageType": "sklo"}, {"address": {"address": "Bazovsk\u00e9ho 12", "town": {"town": "Nitra", "region": {"region": "Nitriansk\u00fd"}}, "lat": "48.3044452", "lon": "18.0578821"}, "type": {"type": "SKLO - ZVON"}, "garbageType": "sklo"}, {"address": {"address": "Bazovsk\u00e9ho 14", "town": {"town": "Nitra", "region": {"region": "Nitriansk\u00fd"}}, "lat": "48.3044452", "lon": "18.0578821"}, "type": {"type": "SKLO - ZVON"}, "garbageType": "sklo"}, {"address": {"address": "Beethovenova 9", "town": {"town": "Nitra", "region": {"region": "Nitriansk\u00fd"}}, "lat": "48.3015571", "lon": "18.053854340129455"}, "type": {"type": "PLAST 1100 l"}, "garbageType": "plasty"}, {"address": {"address": "Beethovenova 3", "town": {"town": "Nitra", "region": {"region": "Nitriansk\u00fd"}}, "lat": "48.3011867", "lon": "18.05433697036888"}, "type": {"type": "PLAST 1100 l"}, "garbageType": "plasty"}, {"address": {"address": "Beethovenova 2", "town": {"town": "Nitra", "region": {"region": "Nitriansk\u00fd"}}, "lat": "48.3001033", "lon": "18.053605017663557"}, "type": {"type": "PLAST 1100 l"}, "garbageType": "plasty"}, {"address": {"address": "Beethovenova 8", "town": {"town": "Nitra", "region": {"region": "Nitriansk\u00fd"}}, "lat": "48.3006984", "lon": "18.05438249999782"}, "type": {"type": "PLAST 1100 l"}, "garbageType": "plasty"}, {"address": {"address": "Beethovenova 10", "town": {"town": "Nitra", "region": {"region": "Nitriansk\u00fd"}}, "lat": "48.301064100000005", "lon": "18.054915143089573"}, "type": {"type": "PLAST 1100 l"}, "garbageType": "plasty"}, {"address": {"address": "Beethovenova 18", "town": {"town": "Nitra", "region": {"region": "Nitriansk\u00fd"}}, "lat": "48.3014923", "lon": "18.0535468"}, "type": {"type": "PLAST 1100 l"}, "garbageType": "plasty"}, {"address": {"address": "Beethovenova 9", "town": {"town": "Nitra", "region": {"region": "Nitriansk\u00fd"}}, "lat": "48.3015571", "lon": "18.053854340129455"}, "type": {"type": "SKLO - ZVON"}, "garbageType": "sklo"}, {"address": {"address": "Beethovenova 11", "town": {"town": "Nitra", "region": {"region": "Nitriansk\u00fd"}}, "lat": "48.30186235", "lon": "18.052609782117866"}, "type": {"type": "SKLO - ZVON"}, "garbageType": "sklo"}, {"address": {"address": "Beethovenova 4", "town": {"town": "Nitra", "region": {"region": "Nitriansk\u00fd"}}, "lat": "48.3002103", "lon": "18.05379235883178"}, "type": {"type": "SKLO - ZVON"}, "garbageType": "sklo"}, {"address": {"address": "Beethovenova 8", "town": {"town": "Nitra", "region": {"region": "Nitriansk\u00fd"}}, "lat": "48.3006984", "lon": "18.05438249999782"}, "type": {"type": "SKLO - ZVON"}, "garbageType": "sklo"}, {"address": {"address": "Beethovenova 18", "town": {"town": "Nitra", "region": {"region": "Nitriansk\u00fd"}}, "lat": "48.3014923", "lon": "18.0535468"}, "type": {"type": "SKLO - ZVON"}, "garbageType": "sklo"}, {"address": {"address": "Bellova 2", "town": {"town": "Nitra", "region": {"region": "Nitriansk\u00fd"}}, "lat": "48.302843949999996", "lon": "18.056018613910368"}, "type": {"type": "PLAST 1100 l"}, "garbageType": "plasty"}, {"address": {"address": "Bellova 10", "town": {"town": "Nitra", "region": {"region": "Nitriansk\u00fd"}}, "lat": "48.3022846", "lon": "18.054208947904197"}, "type": {"type": "PLAST 1100 l"}, "garbageType": "plasty"}, {"address": {"address": "Bellova 10", "town": {"town": "Nitra", "region": {"region": "Nitriansk\u00fd"}}, "lat": "48.3022846", "lon": "18.054208947904197"}, "type": {"type": "SKLO - ZVON"}, "garbageType": "sklo"}, {"address": {"address": "BENKOVA 6", "town": {"town": "Nitra", "region": {"region": "Nitriansk\u00fd"}}, "lat": "48.30696465", "lon": "18.065725012526883"}, "type": {"type": "PLAST 1100 l"}, "garbageType": "plasty"}, {"address": {"address": "BENKOVA 13", "town": {"town": "Nitra", "region": {"region": "Nitriansk\u00fd"}}, "lat": "48.30533125", "lon": "18.064259850720898"}, "type": {"type": "PLAST 1100 l"}, "garbageType": "plasty"}, {"address": {"address": "BENKOVA 18", "town": {"town": "Nitra", "region": {"region": "Nitriansk\u00fd"}}, "lat": "48.30671085", "lon": "18.064497159246752"}, "type": {"type": "PLAST 1100 l"}, "garbageType": "plasty"}, {"address": {"address": "BENKOVA 1", "town": {"town": "Nitra", "region": {"region": "Nitriansk\u00fd"}}, "lat": "48.30672995", "lon": "18.06639314375007"}, "type": {"type": "SKLO - ZVON"}, "garbageType": "sklo"}, {"address": {"address": "BENKOVA 3", "town": {"town": "Nitra", "region": {"region": "Nitriansk\u00fd"}}, "lat": "48.305820600000004", "lon": "18.064662334551823"}, "type": {"type": "SKLO - ZVON"}, "garbageType": "sklo"}, {"address": {"address": "BENKOVA 6", "town": {"town": "Nitra", "region": {"region": "Nitriansk\u00fd"}}, "lat": "48.30696465", "lon": "18.065725012526883"}, "type": {"type": "SKLO - ZVON"}, "garbageType": "sklo"}, {"address": {"address": "BENKOVA 13", "town": {"town": "Nitra", "region": {"region": "Nitriansk\u00fd"}}, "lat": "48.30533125", "lon": "18.064259850720898"}, "type": {"type": "SKLO - ZVON"}, "garbageType": "sklo"}, {"address": {"address": "BENKOVA 18", "town": {"town": "Nitra", "region": {"region": "Nitriansk\u00fd"}}, "lat": "48.30671085", "lon": "18.064497159246752"}, "type": {"type": "SKLO - ZVON"}, "garbageType": "sklo"}, {"address": {"address": "BIRINGEROVA 1", "town": {"town": "Nitra", "region": {"region": "Nitriansk\u00fd"}}, "lat": "48.31419715", "lon": "18.111294679796387"}, "type": {"type": "PLAST 1100 l"}, "garbageType": "plasty"}, {"address": {"address": "BIRINGEROVA 9", "town": {"town": "Nitra", "region": {"region": "Nitriansk\u00fd"}}, "lat": "48.3148977", "lon": "18.110202812146177"}, "type": {"type": "PLAST 1100 l"}, "garbageType": "plasty"}, {"address": {"address": "BIRINGEROVA 1", "town": {"town": "Nitra", "region": {"region": "Nitriansk\u00fd"}}, "lat": "48.31419715", "lon": "18.111294679796387"}, "type": {"type": "SKLO - ZVON"}, "garbageType": "sklo"}, {"address": {"address": "Bizetova 1", "town": {"town": "Nitra", "region": {"region": "Nitriansk\u00fd"}}, "lat": "48.2996682", "lon": "18.0543141"}, "type": {"type": "PLAST 1100 l"}, "garbageType": "plasty"}, {"address": {"address": "Bizetova 8", "town": {"town": "Nitra", "region": {"region": "Nitriansk\u00fd"}}, "lat": "48.29975", "lon": "18.0561156941597"}, "type": {"type": "PLAST 1100 l"}, "garbageType": "plasty"}, {"address": {"address": "Bizetova 25", "town": {"town": "Nitra", "region": {"region": "Nitriansk\u00fd"}}, "lat": "48.2996682", "lon": "18.0543141"}, "type": {"type": "PLAST 1100 l"}, "garbageType": "plasty"}, {"address": {"address": "Bizetova 1", "town": {"town": "Nitra", "region": {"region": "Nitriansk\u00fd"}}, "lat": "48.2996682", "lon": "18.0543141"}, "type": {"type": "SKLO - ZVON"}, "garbageType": "sklo"}, {"address": {"address": "Bizetova 8", "town": {"town": "Nitra", "region": {"region": "Nitriansk\u00fd"}}, "lat": "48.29975", "lon": "18.0561156941597"}, "type": {"type": "SKLO - ZVON"}, "garbageType": "sklo"}, {"address": {"address": "Bizetova 25", "town": {"town": "Nitra", "region": {"region": "Nitriansk\u00fd"}}, "lat": "48.2996682", "lon": "18.0543141"}, "type": {"type": "SKLO - ZVON"}, "garbageType": "sklo"}, {"address": {"address": "Bizetova 33", "town": {"town": "Nitra", "region": {"region": "Nitriansk\u00fd"}}, "lat": "48.2996682", "lon": "18.0543141"}, "type": {"type": "SKLO - ZVON"}, "garbageType": "sklo"}, {"address": {"address": "Bole\u010dkov\u00e1 2", "town": {"town": "Nitra - Mlyn\u00e1rce", "region": {"region": "Nitriansk\u00fd"}}, "lat": "48.31340415", "lon": "18.057418959773358"}, "type": {"type": "PLAST 1100 l"}, "garbageType": "plasty"}, {"address": {"address": "Borod\u00e1\u010dova 14", "town": {"town": "Nitra", "region": {"region": "Nitriansk\u00fd"}}, "lat": "48.3058337", "lon": "18.0659907"}, "type": {"type": "MOLOK SKLO 3m3"}, "garbageType": "sklo"}, {"address": {"address": "Borod\u00e1\u010dova 14", "town": {"town": "Nitra", "region": {"region": "Nitriansk\u00fd"}}, "lat": "48.3058337", "lon": "18.0659907"}, "type": {"type": "MOLOK PLAST 5m3"}, "garbageType": "plasty"}, {"address": {"address": "Botanick\u00e1 5", "town": {"town": "Nitra", "region": {"region": "Nitriansk\u00fd"}}, "lat": "48.3048795", "lon": "18.0995445"}, "type": {"type": "PLAST 1100 l"}, "garbageType": "plasty"}, {"address": {"address": "Botanick\u00e1 13", "town": {"town": "Nitra", "region": {"region": "Nitriansk\u00fd"}}, "lat": "48.3054862", "lon": "18.0989044"}, "type": {"type": "PLAST 1100 l"}, "garbageType": "plasty"}, {"address": {"address": "Botanick\u00e1 5", "town": {"town": "Nitra", "region": {"region": "Nitriansk\u00fd"}}, "lat": "48.3048795", "lon": "18.0995445"}, "type": {"type": "SKLO - ZVON"}, "garbageType": "sklo"}, {"address": {"address": "Bottova 11", "town": {"town": "Nitra", "region": {"region": "Nitriansk\u00fd"}}, "lat": "48.2989061", "lon": "18.0744617"}, "type": {"type": "SKLO - ZVON"}, "garbageType": "sklo"}, {"address": {"address": "Braneck\u00e9ho 1", "town": {"town": "Nitra", "region": {"region": "Nitriansk\u00fd"}}, "lat": "48.3072385", "lon": "18.0719758"}, "type": {"type": "PLAST 1100 l"}, "garbageType": "plasty"}, {"address": {"address": "Braneck\u00e9ho 1", "town": {"town": "Nitra", "region": {"region": "Nitriansk\u00fd"}}, "lat": "48.3072385", "lon": "18.0719758"}, "type": {"type": "SKLO - ZVON"}, "garbageType": "sklo"}, {"address": {"address": "Bratislavsk\u00e1 31", "town": {"town": "Nitra", "region": {"region": "Nitriansk\u00fd"}}, "lat": "48.3151658", "lon": "18.0606977"}, "type": {"type": "PLAST 1100 l"}, "garbageType": "plasty"}, {"address": {"address": "Brezov\u00e1 7", "town": {"town": "Nitra - Chrenov\u00e1", "region": {"region": "Nitriansk\u00fd"}}, "lat": "48.309505200000004", "lon": "18.102349002103256"}, "type": {"type": "MOLOK SKLO 3m3"}, "garbageType": "sklo"}, {"address": {"address": "Brezov\u00e1 7", "town": {"town": "Nitra - Chrenov\u00e1", "region": {"region": "Nitriansk\u00fd"}}, "lat": "48.309505200000004", "lon": "18.102349002103256"}, "type": {"type": "MOLOK PLAST 5m3"}, "garbageType": "plasty"}, {"address": {"address": "CABAJSK\u00c1 0", "town": {"town": "Nitra - \u010cerm\u00e1\u0148", "region": {"region": "Nitriansk\u00fd"}}, "lat": "48.2958743", "lon": "18.0792617"}, "type": {"type": "SKLO - ZVON"}, "garbageType": "sklo"}, {"address": {"address": "CABAJSK\u00c1 38", "town": {"town": "Nitra - \u010cerm\u00e1\u0148", "region": {"region": "Nitriansk\u00fd"}}, "lat": "48.2908954", "lon": "18.075647318148825"}, "type": {"type": "PLAST 1100 l"}, "garbageType": "plasty"}, {"address": {"address": "CABAJSK\u00c1 0", "town": {"town": "Nitra - \u010cerm\u00e1\u0148", "region": {"region": "Nitriansk\u00fd"}}, "lat": "48.2958743", "lon": "18.0792617"}, "type": {"type": "PLAST 1100 l"}, "garbageType": "plasty"}, {"address": {"address": "CABAJSK\u00c1 28A", "town": {"town": "Nitra - \u010cerm\u00e1\u0148", "region": {"region": "Nitriansk\u00fd"}}, "lat": "48.2958743", "lon": "18.0792617"}, "type": {"type": "PLAST 1100 l"}, "garbageType": "plasty"}, {"address": {"address": "CABAJSK\u00c1 4", "town": {"town": "Nitra", "region": {"region": "Nitriansk\u00fd"}}, "lat": "48.296956550000004", "lon": "18.07778893087513"}, "type": {"type": "PLAST 1100 l"}, "garbageType": "plasty"}, {"address": {"address": "CABAJSK\u00c1 6", "town": {"town": "Nitra", "region": {"region": "Nitriansk\u00fd"}}, "lat": "48.2826508", "lon": "18.0648225"}, "type": {"type": "PLAST 1100 l"}, "garbageType": "plasty"}, {"address": {"address": "CABAJSK\u00c1 10", "town": {"town": "Nitra", "region": {"region": "Nitriansk\u00fd"}}, "lat": "48.2917292", "lon": "18.077601040750924"}, "type": {"type": "PLAST 1100 l"}, "garbageType": "plasty"}, {"address": {"address": "CABAJSK\u00c1 26", "town": {"town": "Nitra", "region": {"region": "Nitriansk\u00fd"}}, "lat": "48.2826508", "lon": "18.0648225"}, "type": {"type": "PLAST 1100 l"}, "garbageType": "plasty"}, {"address": {"address": "CABAJSK\u00c1 26", "town": {"town": "Nitra", "region": {"region": "Nitriansk\u00fd"}}, "lat": "48.2826508", "lon": "18.0648225"}, "type": {"type": "SKLO - ZVON"}, "garbageType": "sklo"}, {"address": {"address": "\u010cajkovsk\u00e9ho 46", "town": {"town": "Nitra - Kloko\u010dina", "region": {"region": "Nitriansk\u00fd"}}, "lat": "48.3019918", "lon": "18.0596817"}, "type": {"type": "PLAST 1100 l"}, "garbageType": "plasty"}, {"address": {"address": "\u010cajkovsk\u00e9ho 46", "town": {"town": "Nitra - Kloko\u010dina", "region": {"region": "Nitriansk\u00fd"}}, "lat": "48.3019918", "lon": "18.0596817"}, "type": {"type": "SKLO - ZVON"}, "garbageType": "sklo"}, {"address": {"address": "\u010cajkovsk\u00e9ho 1", "town": {"town": "Nitra", "region": {"region": "Nitriansk\u00fd"}}, "lat": "48.300501100000005", "lon": "18.05805248670275"}, "type": {"type": "PLAST 1100 l"}, "garbageType": "plasty"}, {"address": {"address": "\u010cajkovsk\u00e9ho 5", "town": {"town": "Nitra", "region": {"region": "Nitriansk\u00fd"}}, "lat": "48.30131735", "lon": "18.05650870228238"}, "type": {"type": "PLAST 1100 l"}, "garbageType": "plasty"}, {"address": {"address": "\u010cajkovsk\u00e9ho 13", "town": {"town": "Nitra", "region": {"region": "Nitriansk\u00fd"}}, "lat": "48.301421250000004", "lon": "18.0584484116271"}, "type": {"type": "PLAST 1100 l"}, "garbageType": "plasty"}, {"address": {"address": "\u010cajkovsk\u00e9ho 20", "town": {"town": "Nitra", "region": {"region": "Nitriansk\u00fd"}}, "lat": "48.3027249", "lon": "18.057896403127806"}, "type": {"type": "PLAST 1100 l"}, "garbageType": "plasty"}, {"address": {"address": "\u010cajkovsk\u00e9ho 21", "town": {"town": "Nitra", "region": {"region": "Nitriansk\u00fd"}}, "lat": "48.30191635", "lon": "18.057746"}, "type": {"type": "PLAST 1100 l"}, "garbageType": "plasty"}, {"address": {"address": "\u010cajkovsk\u00e9ho 24", "town": {"town": "Nitra", "region": {"region": "Nitriansk\u00fd"}}, "lat": "48.303237749999994", "lon": "18.05787641063082"}, "type": {"type": "PLAST 1100 l"}, "garbageType": "plasty"}, {"address": {"address": "\u010cajkovsk\u00e9ho 28", "town": {"town": "Nitra", "region": {"region": "Nitriansk\u00fd"}}, "lat": "48.3035615", "lon": "18.05867428014008"}, "type": {"type": "PLAST 1100 l"}, "garbageType": "plasty"}, {"address": {"address": "\u010cajkovsk\u00e9ho 30", "town": {"town": "Nitra", "region": {"region": "Nitriansk\u00fd"}}, "lat": "48.30328655", "lon": "18.058795646014765"}, "type": {"type": "PLAST 1100 l"}, "garbageType": "plasty"}, {"address": {"address": "\u010cajkovsk\u00e9ho 38", "town": {"town": "Nitra", "region": {"region": "Nitriansk\u00fd"}}, "lat": "48.3026395", "lon": "18.059370036633776"}, "type": {"type": "PLAST 1100 l"}, "garbageType": "plasty"}, {"address": {"address": "\u010cajkovsk\u00e9ho 40", "town": {"town": "Nitra", "region": {"region": "Nitriansk\u00fd"}}, "lat": "48.30248265", "lon": "18.06005903291583"}, "type": {"type": "PLAST 1100 l"}, "garbageType": "plasty"}, {"address": {"address": "\u010cajkovsk\u00e9ho 1", "town": {"town": "Nitra", "region": {"region": "Nitriansk\u00fd"}}, "lat": "48.300501100000005", "lon": "18.05805248670275"}, "type": {"type": "SKLO - ZVON"}, "garbageType": "sklo"}, {"address": {"address": "\u010cajkovsk\u00e9ho 5", "town": {"town": "Nitra", "region": {"region": "Nitriansk\u00fd"}}, "lat": "48.30131735", "lon": "18.05650870228238"}, "type": {"type": "SKLO - ZVON"}, "garbageType": "sklo"}, {"address": {"address": "\u010cajkovsk\u00e9ho 13", "town": {"town": "Nitra", "region": {"region": "Nitriansk\u00fd"}}, "lat": "48.301421250000004", "lon": "18.0584484116271"}, "type": {"type": "SKLO - ZVON"}, "garbageType": "sklo"}, {"address": {"address": "\u010cajkovsk\u00e9ho 20", "town": {"town": "Nitra", "region": {"region": "Nitriansk\u00fd"}}, "lat": "48.3027249", "lon": "18.057896403127806"}, "type": {"type": "SKLO - ZVON"}, "garbageType": "sklo"}, {"address": {"address": "\u010cajkovsk\u00e9ho 21", "town": {"town": "Nitra", "region": {"region": "Nitriansk\u00fd"}}, "lat": "48.30191635", "lon": "18.057746"}, "type": {"type": "SKLO - ZVON"}, "garbageType": "sklo"}, {"address": {"address": "\u010cajkovsk\u00e9ho 24", "town": {"town": "Nitra", "region": {"region": "Nitriansk\u00fd"}}, "lat": "48.303237749999994", "lon": "18.05787641063082"}, "type": {"type": "SKLO - ZVON"}, "garbageType": "sklo"}, {"address": {"address": "\u010cajkovsk\u00e9ho 28", "town": {"town": "Nitra", "region": {"region": "Nitriansk\u00fd"}}, "lat": "48.3035615", "lon": "18.05867428014008"}, "type": {"type": "SKLO - ZVON"}, "garbageType": "sklo"}, {"address": {"address": "\u010cajkovsk\u00e9ho 38", "town": {"town": "Nitra", "region": {"region": "Nitriansk\u00fd"}}, "lat": "48.3026395", "lon": "18.059370036633776"}, "type": {"type": "SKLO - ZVON"}, "garbageType": "sklo"}, {"address": {"address": "\u010cakankov\u00e1 1", "town": {"town": "Nitra - P\u00e1rovsk\u00e9 H\u00e1je", "region": {"region": "Nitriansk\u00fd"}}, "lat": "48.2948059", "lon": "18.0309795"}, "type": {"type": "SKLO - ZVON"}, "garbageType": "sklo"}, {"address": {"address": "Chalupkova 20", "town": {"town": "Nitra", "region": {"region": "Nitriansk\u00fd"}}, "lat": "48.3054377", "lon": "18.08888533402665"}, "type": {"type": "PLAST 1100 l"}, "garbageType": "plasty"}, {"address": {"address": "Chme\u013eov\u00e1 dolina 7", "town": {"town": "Nitra", "region": {"region": "Nitriansk\u00fd"}}, "lat": "48.3252212", "lon": "18.0901503"}, "type": {"type": "SKLO - ZVON"}, "garbageType": "sklo"}, {"address": {"address": "Chrenovsk\u00e1 22/B", "town": {"town": "Nitra - Chrenov\u00e1", "region": {"region": "Nitriansk\u00fd"}}, "lat": "48.318811749999995", "lon": "18.101129150000013"}, "type": {"type": "PLAST 1100 l"}, "garbageType": "plasty"}, {"address": {"address": "Cintor\u00ednska 3", "town": {"town": "Nitra", "region": {"region": "Nitriansk\u00fd"}}, "lat": "48.3071313", "lon": "18.08229486691798"}, "type": {"type": "PLAST 1100 l"}, "garbageType": "plasty"}, {"address": {"address": "Cintor\u00ednska 4", "town": {"town": "Nitra", "region": {"region": "Nitriansk\u00fd"}}, "lat": "48.3081548", "lon": "18.081766965858087"}, "type": {"type": "PLAST 1100 l"}, "garbageType": "plasty"}, {"address": {"address": "Cintor\u00ednska 6", "town": {"town": "Nitra", "region": {"region": "Nitriansk\u00fd"}}, "lat": "48.30756635", "lon": "18.081961246816356"}, "type": {"type": "PLAST 1100 l"}, "garbageType": "plasty"}, {"address": {"address": "Clementisova 41", "town": {"town": "Nitra", "region": {"region": "Nitriansk\u00fd"}}, "lat": "48.315609800000004", "lon": "18.111540152486082"}, "type": {"type": "PLAST 1100 l"}, "garbageType": "plasty"}, {"address": {"address": "Clementisova 41", "town": {"town": "Nitra", "region": {"region": "Nitriansk\u00fd"}}, "lat": "48.315609800000004", "lon": "18.111540152486082"}, "type": {"type": "SKLO - ZVON"}, "garbageType": "sklo"}, {"address": {"address": "Damborsk\u00e9ho 7", "town": {"town": "Nitra", "region": {"region": "Nitriansk\u00fd"}}, "lat": "48.30691805", "lon": "18.083657526009063"}, "type": {"type": "PLAST 1100 l"}, "garbageType": "plasty"}, {"address": {"address": "Damborsk\u00e9ho 7", "town": {"town": "Nitra", "region": {"region": "Nitriansk\u00fd"}}, "lat": "48.30691805", "lon": "18.083657526009063"}, "type": {"type": "SKLO - ZVON"}, "garbageType": "sklo"}, {"address": {"address": "DLH\u00c1 - CHRENOV\u00c1 91", "town": {"town": "Nitra - Chrenov\u00e1", "region": {"region": "Nitriansk\u00fd"}}, "lat": "48.31128135", "lon": "18.113161421685994"}, "type": {"type": "PLAST 1100 l"}, "garbageType": "plasty"}, {"address": {"address": "Doln\u00e9 Hony 3", "town": {"town": "Nitra - Dra\u017eovce", "region": {"region": "Nitriansk\u00fd"}}, "lat": "48.3400923", "lon": "18.065428"}, "type": {"type": "PLAST 1100 l"}, "garbageType": "plasty"}, {"address": {"address": "Dolno\u010derm\u00e1nska 64", "town": {"town": "Nitra", "region": {"region": "Nitriansk\u00fd"}}, "lat": "48.29925135", "lon": "18.067130585251157"}, "type": {"type": "PLAST 1100 l"}, "garbageType": "plasty"}, {"address": {"address": "Dolno\u010derm\u00e1nska 105", "town": {"town": "Nitra", "region": {"region": "Nitriansk\u00fd"}}, "lat": "48.297521950000004", "lon": "18.067094810857245"}, "type": {"type": "PLAST 1100 l"}, "garbageType": "plasty"}, {"address": {"address": "Dolno\u010derm\u00e1nska 91", "town": {"town": "Nitra", "region": {"region": "Nitriansk\u00fd"}}, "lat": "48.2919835", "lon": "18.0717121"}, "type": {"type": "PLAST 1100 l"}, "garbageType": "plasty"}, {"address": {"address": "Dolno\u010derm\u00e1nska 62", "town": {"town": "Nitra", "region": {"region": "Nitriansk\u00fd"}}, "lat": "48.2983859", "lon": "18.070950334041925"}, "type": {"type": "PLAST 1100 l"}, "garbageType": "plasty"}, {"address": {"address": "Dolno\u010derm\u00e1nska 91", "town": {"town": "Nitra", "region": {"region": "Nitriansk\u00fd"}}, "lat": "48.2919835", "lon": "18.0717121"}, "type": {"type": "SKLO - ZVON"}, "garbageType": "sklo"}, {"address": {"address": "Dolno\u010derm\u00e1nska 62", "town": {"town": "Nitra", "region": {"region": "Nitriansk\u00fd"}}, "lat": "48.2983859", "lon": "18.070950334041925"}, "type": {"type": "SKLO - ZVON"}, "garbageType": "sklo"}, {"address": {"address": "DRA\u017dOVSK\u00c1 5", "town": {"town": "Nitra - Zobor", "region": {"region": "Nitriansk\u00fd"}}, "lat": "48.3277413", "lon": "18.08204673821294"}, "type": {"type": "PLAST 1100 l"}, "garbageType": "plasty"}, {"address": {"address": "DRA\u017dOVSK\u00c1 4", "town": {"town": "Nitra - Zobor", "region": {"region": "Nitriansk\u00fd"}}, "lat": "48.3232745", "lon": "18.092937"}, "type": {"type": "PLAST 1100 l"}, "garbageType": "plasty"}, {"address": {"address": "DRA\u017dOVSK\u00c1 14", "town": {"town": "Nitra - Zobor", "region": {"region": "Nitriansk\u00fd"}}, "lat": "48.3322531", "lon": "18.083061746620796"}, "type": {"type": "PLAST 1100 l"}, "garbageType": "plasty"}, {"address": {"address": "DRA\u017dOVSK\u00c1 15", "town": {"town": "Nitra - Zobor", "region": {"region": "Nitriansk\u00fd"}}, "lat": "48.3294674", "lon": "18.084074103077974"}, "type": {"type": "PLAST 1100 l"}, "garbageType": "plasty"}, {"address": {"address": "\u010eumbierska 25", "town": {"town": "Nitra", "region": {"region": "Nitriansk\u00fd"}}, "lat": "48.3060044", "lon": "18.11156209763247"}, "type": {"type": "PLAST 1100 l"}, "garbageType": "plasty"}, {"address": {"address": "\u010eumbierska 11", "town": {"town": "Nitra - Chrenov\u00e1", "region": {"region": "Nitriansk\u00fd"}}, "lat": "48.30521265", "lon": "18.11066997396884"}, "type": {"type": "MOLOK SKLO 3m3"}, "garbageType": "sklo"}, {"address": {"address": "\u010eumbierska 25", "town": {"town": "Nitra - Chrenov\u00e1", "region": {"region": "Nitriansk\u00fd"}}, "lat": "48.3060044", "lon": "18.11156209763247"}, "type": {"type": "MOLOK SKLO 3m3"}, "garbageType": "sklo"}, {"address": {"address": "\u010eumbierska 27", "town": {"town": "Nitra - Chrenov\u00e1", "region": {"region": "Nitriansk\u00fd"}}, "lat": "48.306431599999996", "lon": "18.111434421521743"}, "type": {"type": "MOLOK SKLO 3m3"}, "garbageType": "sklo"}, {"address": {"address": "\u010eumbierska 47", "town": {"town": "Nitra - Chrenov\u00e1", "region": {"region": "Nitriansk\u00fd"}}, "lat": "48.30658175", "lon": "18.11058478951746"}, "type": {"type": "MOLOK SKLO 3m3"}, "garbageType": "sklo"}, {"address": {"address": "\u010eumbierska 11", "town": {"town": "Nitra - Chrenov\u00e1", "region": {"region": "Nitriansk\u00fd"}}, "lat": "48.30521265", "lon": "18.11066997396884"}, "type": {"type": "MOLOK PLAST 5m3"}, "garbageType": "plasty"}, {"address": {"address": "\u010eumbierska 25", "town": {"town": "Nitra - Chrenov\u00e1", "region": {"region": "Nitriansk\u00fd"}}, "lat": "48.3060044", "lon": "18.11156209763247"}, "type": {"type": "MOLOK PLAST 5m3"}, "garbageType": "plasty"}, {"address": {"address": "\u010eumbierska 27", "town": {"town": "Nitra - Chrenov\u00e1", "region": {"region": "Nitriansk\u00fd"}}, "lat": "48.306431599999996", "lon": "18.111434421521743"}, "type": {"type": "MOLOK PLAST 5m3"}, "garbageType": "plasty"}, {"address": {"address": "\u010eumbierska 47", "town": {"town": "Nitra - Chrenov\u00e1", "region": {"region": "Nitriansk\u00fd"}}, "lat": "48.30658175", "lon": "18.11058478951746"}, "type": {"type": "MOLOK PLAST 5m3"}, "garbageType": "plasty"}, {"address": {"address": "Dunajsk\u00e1 20", "town": {"town": "Nitra - Kloko\u010dina", "region": {"region": "Nitriansk\u00fd"}}, "lat": "48.305023250000005", "lon": "18.053541627270505"}, "type": {"type": "SKLO - ZVON"}, "garbageType": "sklo"}, {"address": {"address": "Dunajsk\u00e1 20", "town": {"town": "Nitra - Kloko\u010dina", "region": {"region": "Nitriansk\u00fd"}}, "lat": "48.305023250000005", "lon": "18.053541627270505"}, "type": {"type": "PLAST 1100 l"}, "garbageType": "plasty"}, {"address": {"address": "\u010eur\u010dansk\u00e9ho 11", "town": {"town": "Nitra", "region": {"region": "Nitriansk\u00fd"}}, "lat": "48.31482925", "lon": "18.11217095205842"}, "type": {"type": "PLAST 1100 l"}, "garbageType": "plasty"}, {"address": {"address": "\u010eur\u010dansk\u00e9ho 11", "town": {"town": "Nitra", "region": {"region": "Nitriansk\u00fd"}}, "lat": "48.31482925", "lon": "18.11217095205842"}, "type": {"type": "SKLO - ZVON"}, "garbageType": "sklo"}, {"address": {"address": "\u010eur\u010dansk\u00e9ho 7", "town": {"town": "Nitra - Chrenov\u00e1", "region": {"region": "Nitriansk\u00fd"}}, "lat": "48.3134441", "lon": "18.110261407307796"}, "type": {"type": "MOLOK PLAST 5m3"}, "garbageType": "plasty"}, {"address": {"address": "\u010eur\u010dansk\u00e9ho 8", "town": {"town": "Nitra - Chrenov\u00e1", "region": {"region": "Nitriansk\u00fd"}}, "lat": "48.313710400000005", "lon": "18.112200055803676"}, "type": {"type": "MOLOK PLAST 5m3"}, "garbageType": "plasty"}, {"address": {"address": "\u010eur\u010dansk\u00e9ho 7", "town": {"town": "Nitra - Chrenov\u00e1", "region": {"region": "Nitriansk\u00fd"}}, "lat": "48.3134441", "lon": "18.110261407307796"}, "type": {"type": "MOLOK SKLO 3m3"}, "garbageType": "sklo"}, {"address": {"address": "\u010eur\u010dansk\u00e9ho 8", "town": {"town": "Nitra - Chrenov\u00e1", "region": {"region": "Nitriansk\u00fd"}}, "lat": "48.313710400000005", "lon": "18.112200055803676"}, "type": {"type": "MOLOK SKLO 3m3"}, "garbageType": "sklo"}, {"address": {"address": "DVOR\u010cIANSKA 59/C", "town": {"town": "Nitra - Doln\u00e9 Kr\u0161kany", "region": {"region": "Nitriansk\u00fd"}}, "lat": "48.2682051", "lon": "18.0951651"}, "type": {"type": "PLAST 1100 l"}, "garbageType": "plasty"}, {"address": {"address": "DVOR\u010cIANSKA 63", "town": {"town": "Nitra", "region": {"region": "Nitriansk\u00fd"}}, "lat": "48.2682051", "lon": "18.0951651"}, "type": {"type": "PLAST 1100 l"}, "garbageType": "plasty"}, {"address": {"address": "DVOR\u010cIANSKA 66", "town": {"town": "Nitra", "region": {"region": "Nitriansk\u00fd"}}, "lat": "48.2682051", "lon": "18.0951651"}, "type": {"type": "SKLO - ZVON"}, "garbageType": "sklo"}, {"address": {"address": "DVOR\u010cIANSKA 63", "town": {"town": "Nitra", "region": {"region": "Nitriansk\u00fd"}}, "lat": "48.2682051", "lon": "18.0951651"}, "type": {"type": "SKLO - ZVON"}, "garbageType": "sklo"}, {"address": {"address": "Farsk\u00e1 36", "town": {"town": "Nitra", "region": {"region": "Nitriansk\u00fd"}}, "lat": "48.31145775", "lon": "18.085330220276823"}, "type": {"type": "SKLO - ZVON"}, "garbageType": "sklo"}, {"address": {"address": "Fatransk\u00e1 2", "town": {"town": "Nitra - Chrenov\u00e1", "region": {"region": "Nitriansk\u00fd"}}, "lat": "48.308654950000005", "lon": "18.105075257674812"}, "type": {"type": "MOLOK PLAST 5m3"}, "garbageType": "plasty"}, {"address": {"address": "Fatransk\u00e1 2", "town": {"town": "Nitra - Chrenov\u00e1", "region": {"region": "Nitriansk\u00fd"}}, "lat": "48.308654950000005", "lon": "18.105075257674812"}, "type": {"type": "MOLOK SKLO 3m3"}, "garbageType": "sklo"}, {"address": {"address": "Fra\u0148a Mojtu 43", "town": {"town": "Nitra", "region": {"region": "Nitriansk\u00fd"}}, "lat": "48.3130047", "lon": "18.092017"}, "type": {"type": "PLAST 1100 l"}, "garbageType": "plasty"}, {"address": {"address": "GALBAV\u00c9HO 20", "town": {"town": "Nitra", "region": {"region": "Nitriansk\u00fd"}}, "lat": "48.29936335", "lon": "18.07051375863596"}, "type": {"type": "SKLO - ZVON"}, "garbageType": "sklo"}, {"address": {"address": "Golianova 70", "town": {"town": "Nitra", "region": {"region": "Nitriansk\u00fd"}}, "lat": "48.29642305", "lon": "18.067242521556352"}, "type": {"type": "PLAST 1100 l"}, "garbageType": "plasty"}, {"address": {"address": "Golianova 44", "town": {"town": "Nitra", "region": {"region": "Nitriansk\u00fd"}}, "lat": "48.29572355", "lon": "18.06350048320312"}, "type": {"type": "PLAST 1100 l"}, "garbageType": "plasty"}, {"address": {"address": "Golianova 60", "town": {"town": "Nitra", "region": {"region": "Nitriansk\u00fd"}}, "lat": "48.295124200000004", "lon": "18.062385190322587"}, "type": {"type": "PLAST 1100 l"}, "garbageType": "plasty"}, {"address": {"address": "Golianova 62", "town": {"town": "Nitra", "region": {"region": "Nitriansk\u00fd"}}, "lat": "48.29537555", "lon": "18.062185642049954"}, "type": {"type": "PLAST 1100 l"}, "garbageType": "plasty"}, {"address": {"address": "Golianova 68", "town": {"town": "Nitra", "region": {"region": "Nitriansk\u00fd"}}, "lat": "48.29437275", "lon": "18.060646740353448"}, "type": {"type": "PLAST 1100 l"}, "garbageType": "plasty"}, {"address": {"address": "Golianova 54", "town": {"town": "Nitra - Kloko\u010dina", "region": {"region": "Nitriansk\u00fd"}}, "lat": "48.2950075", "lon": "18.0639714"}, "type": {"type": "SKLO - ZVON"}, "garbageType": "sklo"}, {"address": {"address": "Golianova 44", "town": {"town": "Nitra", "region": {"region": "Nitriansk\u00fd"}}, "lat": "48.29572355", "lon": "18.06350048320312"}, "type": {"type": "SKLO - ZVON"}, "garbageType": "sklo"}, {"address": {"address": "Golianova 62", "town": {"town": "Nitra", "region": {"region": "Nitriansk\u00fd"}}, "lat": "48.29537555", "lon": "18.062185642049954"}, "type": {"type": "SKLO - ZVON"}, "garbageType": "sklo"}, {"address": {"address": "GOLIANOVSK\u00c1 8", "town": {"town": "Nitra - Jan\u00edkovce", "region": {"region": "Nitriansk\u00fd"}}, "lat": "48.2859519", "lon": "18.1462153"}, "type": {"type": "SKLO - ZVON"}, "garbageType": "sklo"}, {"address": {"address": "Gorazdova 12", "town": {"town": "Nitra - Chrenov\u00e1", "region": {"region": "Nitriansk\u00fd"}}, "lat": "48.3073506", "lon": "18.1178813663519"}, "type": {"type": "PLAST 1100 l"}, "garbageType": "plasty"}, {"address": {"address": "Hlavn\u00e1 123", "town": {"town": "Nitra", "region": {"region": "Nitriansk\u00fd"}}, "lat": "48.30177185", "lon": "18.181041905528375"}, "type": {"type": "PLAST 1100 l"}, "garbageType": "plasty"}, {"address": {"address": "Hlavn\u00e1 123", "town": {"town": "Nitra", "region": {"region": "Nitriansk\u00fd"}}, "lat": "48.30177185", "lon": "18.181041905528375"}, "type": {"type": "SKLO - ZVON"}, "garbageType": "sklo"}, {"address": {"address": "Hlavn\u00e1 7", "town": {"town": "Nitra - Jan\u00edkovce", "region": {"region": "Nitriansk\u00fd"}}, "lat": "48.2867381", "lon": "18.138202"}, "type": {"type": "MOLOK SKLO 3m3"}, "garbageType": "sklo"}, {"address": {"address": "Hlavn\u00e1 7", "town": {"town": "Nitra - Jan\u00edkovce", "region": {"region": "Nitriansk\u00fd"}}, "lat": "48.2867381", "lon": "18.138202"}, "type": {"type": "MOLOK PLAST 5m3"}, "garbageType": "plasty"}, {"address": {"address": "Hlbok\u00e1 83", "town": {"town": "Nitra", "region": {"region": "Nitriansk\u00fd"}}, "lat": "48.2942797", "lon": "18.0724913"}, "type": {"type": "PLAST 1100 l"}, "garbageType": "plasty"}, {"address": {"address": "Hlbok\u00e1 59", "town": {"town": "Nitra", "region": {"region": "Nitriansk\u00fd"}}, "lat": "48.2935762", "lon": "18.0741929"}, "type": {"type": "PLAST 1100 l"}, "garbageType": "plasty"}, {"address": {"address": "Hlbok\u00e1 83", "town": {"town": "Nitra", "region": {"region": "Nitriansk\u00fd"}}, "lat": "48.2942797", "lon": "18.0724913"}, "type": {"type": "SKLO - ZVON"}, "garbageType": "sklo"}, {"address": {"address": "Hod\u017eova 24", "town": {"town": "Nitra", "region": {"region": "Nitriansk\u00fd"}}, "lat": "48.3030161", "lon": "18.087168696656654"}, "type": {"type": "PLAST 1100 l"}, "garbageType": "plasty"}, {"address": {"address": "Hod\u017eova 8", "town": {"town": "Nitra", "region": {"region": "Nitriansk\u00fd"}}, "lat": "48.30388", "lon": "18.085026633527676"}, "type": {"type": "PLAST 1100 l"}, "garbageType": "plasty"}, {"address": {"address": "Hod\u017eova 5", "town": {"town": "Nitra", "region": {"region": "Nitriansk\u00fd"}}, "lat": "48.3035901", "lon": "18.08652030106777"}, "type": {"type": "PLAST 1100 l"}, "garbageType": "plasty"}, {"address": {"address": "Hod\u017eova 52", "town": {"town": "Nitra", "region": {"region": "Nitriansk\u00fd"}}, "lat": "48.3017838", "lon": "18.0912888"}, "type": {"type": "PLAST 1100 l"}, "garbageType": "plasty"}, {"address": {"address": "Hod\u017eova 24", "town": {"town": "Nitra", "region": {"region": "Nitriansk\u00fd"}}, "lat": "48.3030161", "lon": "18.087168696656654"}, "type": {"type": "SKLO - ZVON"}, "garbageType": "sklo"}, {"address": {"address": "Hod\u017eova 8", "town": {"town": "Nitra", "region": {"region": "Nitriansk\u00fd"}}, "lat": "48.30388", "lon": "18.085026633527676"}, "type": {"type": "SKLO - ZVON"}, "garbageType": "sklo"}, {"address": {"address": "Hod\u017eova 5", "town": {"town": "Nitra", "region": {"region": "Nitriansk\u00fd"}}, "lat": "48.3035901", "lon": "18.08652030106777"}, "type": {"type": "SKLO - ZVON"}, "garbageType": "sklo"}, {"address": {"address": "Hod\u017eova 52", "town": {"town": "Nitra", "region": {"region": "Nitriansk\u00fd"}}, "lat": "48.3017838", "lon": "18.0912888"}, "type": {"type": "SKLO - ZVON"}, "garbageType": "sklo"}, {"address": {"address": "Holl\u00e9ho 12", "town": {"town": "Nitra", "region": {"region": "Nitriansk\u00fd"}}, "lat": "48.387929150000005", "lon": "18.392731541178065"}, "type": {"type": "PLAST 1100 l"}, "garbageType": "plasty"}, {"address": {"address": "Holl\u00e9ho 7", "town": {"town": "Nitra", "region": {"region": "Nitriansk\u00fd"}}, "lat": "48.387674149999995", "lon": "18.391993395724185"}, "type": {"type": "PLAST 1100 l"}, "garbageType": "plasty"}, {"address": {"address": "Holl\u00e9ho 12", "town": {"town": "Nitra", "region": {"region": "Nitriansk\u00fd"}}, "lat": "48.387929150000005", "lon": "18.392731541178065"}, "type": {"type": "SKLO - ZVON"}, "garbageType": "sklo"}, {"address": {"address": "Hornozoborsk\u00e1 1", "town": {"town": "Nitra", "region": {"region": "Nitriansk\u00fd"}}, "lat": "48.3332726", "lon": "18.1037507"}, "type": {"type": "SKLO - ZVON"}, "garbageType": "sklo"}, {"address": {"address": "Hviezdna 2", "town": {"town": "Nitra", "region": {"region": "Nitriansk\u00fd"}}, "lat": "47.7610803", "lon": "18.1109839"}, "type": {"type": "PLAST 1100 l"}, "garbageType": "plasty"}, {"address": {"address": "Hviezdna 2", "town": {"town": "Nitra", "region": {"region": "Nitriansk\u00fd"}}, "lat": "47.7610803", "lon": "18.1109839"}, "type": {"type": "SKLO - ZVON"}, "garbageType": "sklo"}, {"address": {"address": "HVIEZDOSLAVOVA TRIEDA 11", "town": {"town": "Nitra - Kloko\u010dina", "region": {"region": "Nitriansk\u00fd"}}, "lat": "48.297329", "lon": "18.0528581"}, "type": {"type": "PLAST 1100 l"}, "garbageType": "plasty"}, {"address": {"address": "HVIEZDOSLAVOVA TRIEDA 11", "town": {"town": "Nitra - Kloko\u010dina", "region": {"region": "Nitriansk\u00fd"}}, "lat": "48.297329", "lon": "18.0528581"}, "type": {"type": "SKLO - ZVON"}, "garbageType": "sklo"}, {"address": {"address": "HVIEZDOSLAVOVA TRIEDA 35", "town": {"town": "Nitra - Kloko\u010dina", "region": {"region": "Nitriansk\u00fd"}}, "lat": "48.30218155", "lon": "18.064559532393073"}, "type": {"type": "SKLO - ZVON"}, "garbageType": "sklo"}, {"address": {"address": "J.Kr\u00e1\u013ea 1", "town": {"town": "Nitra", "region": {"region": "Nitriansk\u00fd"}}, "lat": "48.3402068", "lon": "18.4609972"}, "type": {"type": "PLAST 1100 l"}, "garbageType": "plasty"}, {"address": {"address": "J.Kr\u00e1\u013ea 51", "town": {"town": "Nitra", "region": {"region": "Nitriansk\u00fd"}}, "lat": "48.3402068", "lon": "18.4609972"}, "type": {"type": "PLAST 1100 l"}, "garbageType": "plasty"}, {"address": {"address": "J.Kr\u00e1\u013ea 4", "town": {"town": "Nitra", "region": {"region": "Nitriansk\u00fd"}}, "lat": "47.9828366", "lon": "18.156891951439132"}, "type": {"type": "PLAST 1100 l"}, "garbageType": "plasty"}, {"address": {"address": "J.Kr\u00e1\u013ea 128", "town": {"town": "Nitra", "region": {"region": "Nitriansk\u00fd"}}, "lat": "47.9816318", "lon": "18.1555462"}, "type": {"type": "PLAST 1100 l"}, "garbageType": "plasty"}, {"address": {"address": "Janka Kr\u00e1\u013ea 124", "town": {"town": "Nitra", "region": {"region": "Nitriansk\u00fd"}}, "lat": "48.3106314", "lon": "18.0746175"}, "type": {"type": "PLAST 1100 l"}, "garbageType": "plasty"}, {"address": {"address": "J.Kr\u00e1\u013ea 1", "town": {"town": "Nitra", "region": {"region": "Nitriansk\u00fd"}}, "lat": "48.3402068", "lon": "18.4609972"}, "type": {"type": "SKLO - ZVON"}, "garbageType": "sklo"}, {"address": {"address": "J.Kr\u00e1\u013ea 51", "town": {"town": "Nitra", "region": {"region": "Nitriansk\u00fd"}}, "lat": "48.3402068", "lon": "18.4609972"}, "type": {"type": "SKLO - ZVON"}, "garbageType": "sklo"}, {"address": {"address": "J.Kr\u00e1\u013ea 4", "town": {"town": "Nitra", "region": {"region": "Nitriansk\u00fd"}}, "lat": "47.9828366", "lon": "18.156891951439132"}, "type": {"type": "SKLO - ZVON"}, "garbageType": "sklo"}, {"address": {"address": "J\u00e1nskeho 7", "town": {"town": "Nitra", "region": {"region": "Nitriansk\u00fd"}}, "lat": "48.325333", "lon": "18.09401278501495"}, "type": {"type": "PLAST 1100 l"}, "garbageType": "plasty"}, {"address": {"address": "Jarmo\u010dn\u00e1 3", "town": {"town": "Nitra", "region": {"region": "Nitriansk\u00fd"}}, "lat": "48.1464421", "lon": "17.873785215559785"}, "type": {"type": "PLAST 1100 l"}, "garbageType": "plasty"}, {"address": {"address": "Jarmo\u010dn\u00e1 3", "town": {"town": "Nitra", "region": {"region": "Nitriansk\u00fd"}}, "lat": "48.1464421", "lon": "17.873785215559785"}, "type": {"type": "SKLO - ZVON"}, "garbageType": "sklo"}, {"address": {"address": "Javorov\u00e1 1", "town": {"town": "Nitra - Chrenov\u00e1", "region": {"region": "Nitriansk\u00fd"}}, "lat": "48.3110389", "lon": "18.1066995"}, "type": {"type": "MOLOK SKLO 3m3"}, "garbageType": "sklo"}, {"address": {"address": "Javorov\u00e1 1", "town": {"town": "Nitra - Chrenov\u00e1", "region": {"region": "Nitriansk\u00fd"}}, "lat": "48.3110389", "lon": "18.1066995"}, "type": {"type": "MOLOK PLAST 5m3"}, "garbageType": "plasty"}, {"address": {"address": "Jazern\u00e1 32", "town": {"town": "Nitra", "region": {"region": "Nitriansk\u00fd"}}, "lat": "48.1465776", "lon": "17.87503379731045"}, "type": {"type": "PLAST 1100 l"}, "garbageType": "plasty"}, {"address": {"address": "Jedl\u00edkova 3", "town": {"town": "Nitra", "region": {"region": "Nitriansk\u00fd"}}, "lat": "48.2959949", "lon": "18.058649767379396"}, "type": {"type": "PLAST 1100 l"}, "garbageType": "plasty"}, {"address": {"address": "Jedl\u00edkova 2", "town": {"town": "Nitra - Kloko\u010dina", "region": {"region": "Nitriansk\u00fd"}}, "lat": "48.296138150000004", "lon": "18.058066637108176"}, "type": {"type": "PLAST 1100 l"}, "garbageType": "plasty"}, {"address": {"address": "Jedl\u00edkova 1", "town": {"town": "Nitra", "region": {"region": "Nitriansk\u00fd"}}, "lat": "48.295885999999996", "lon": "18.058477099470796"}, "type": {"type": "SKLO - ZVON"}, "garbageType": "sklo"}, {"address": {"address": "Jedl\u00edkova 2", "town": {"town": "Nitra", "region": {"region": "Nitriansk\u00fd"}}, "lat": "48.296138150000004", "lon": "18.058066637108176"}, "type": {"type": "SKLO - ZVON"}, "garbageType": "sklo"}, {"address": {"address": "Jeleneck\u00e1 18", "town": {"town": "Nitra", "region": {"region": "Nitriansk\u00fd"}}, "lat": "48.325361099999995", "lon": "18.110347077696424"}, "type": {"type": "PLAST 1100 l"}, "garbageType": "plasty"}, {"address": {"address": "Jeleneck\u00e1 44", "town": {"town": "Nitra", "region": {"region": "Nitriansk\u00fd"}}, "lat": "48.326476549999995", "lon": "18.112228828121506"}, "type": {"type": "PLAST 1100 l"}, "garbageType": "plasty"}, {"address": {"address": "Jeleneck\u00e1 43", "town": {"town": "Nitra", "region": {"region": "Nitriansk\u00fd"}}, "lat": "48.3233001", "lon": "18.1042072"}, "type": {"type": "PLAST 1100 l"}, "garbageType": "plasty"}, {"address": {"address": "Jeleneck\u00e1 45", "town": {"town": "Nitra", "region": {"region": "Nitriansk\u00fd"}}, "lat": "48.3266383", "lon": "18.1112074"}, "type": {"type": "PLAST 1100 l"}, "garbageType": "plasty"}, {"address": {"address": "Jeleneck\u00e1 47", "town": {"town": "Nitra", "region": {"region": "Nitriansk\u00fd"}}, "lat": "48.3272643", "lon": "18.1114086"}, "type": {"type": "PLAST 1100 l"}, "garbageType": "plasty"}, {"address": {"address": "Jeleneck\u00e1 61", "town": {"town": "Nitra", "region": {"region": "Nitriansk\u00fd"}}, "lat": "48.326106749999994", "lon": "18.10961462654177"}, "type": {"type": "PLAST 1100 l"}, "garbageType": "plasty"}, {"address": {"address": "Jeleneck\u00e1 18", "town": {"town": "Nitra", "region": {"region": "Nitriansk\u00fd"}}, "lat": "48.325361099999995", "lon": "18.110347077696424"}, "type": {"type": "SKLO - ZVON"}, "garbageType": "sklo"}, {"address": {"address": "Jeleneck\u00e1 44", "town": {"town": "Nitra", "region": {"region": "Nitriansk\u00fd"}}, "lat": "48.326476549999995", "lon": "18.112228828121506"}, "type": {"type": "SKLO - ZVON"}, "garbageType": "sklo"}, {"address": {"address": "Jeleneck\u00e1 43", "town": {"town": "Nitra", "region": {"region": "Nitriansk\u00fd"}}, "lat": "48.3233001", "lon": "18.1042072"}, "type": {"type": "SKLO - ZVON"}, "garbageType": "sklo"}, {"address": {"address": "Jeleneck\u00e1 61", "town": {"town": "Nitra", "region": {"region": "Nitriansk\u00fd"}}, "lat": "48.326106749999994", "lon": "18.10961462654177"}, "type": {"type": "SKLO - ZVON"}, "garbageType": "sklo"}, {"address": {"address": "Jesensk\u00e9ho 2", "town": {"town": "Nitra", "region": {"region": "Nitriansk\u00fd"}}, "lat": "48.32056785", "lon": "18.08687452327832"}, "type": {"type": "SKLO - ZVON"}, "garbageType": "sklo"}, {"address": {"address": "Jurkovi\u010dova 18", "town": {"town": "Nitra", "region": {"region": "Nitriansk\u00fd"}}, "lat": "48.3047097", "lon": "18.0649429"}, "type": {"type": "PLAST 1100 l"}, "garbageType": "plasty"}, {"address": {"address": "Jurkovi\u010dova 23", "town": {"town": "Nitra", "region": {"region": "Nitriansk\u00fd"}}, "lat": "48.30420615", "lon": "18.064041139838054"}, "type": {"type": "PLAST 1100 l"}, "garbageType": "plasty"}, {"address": {"address": "Jurkovi\u010dova 17", "town": {"town": "Nitra", "region": {"region": "Nitriansk\u00fd"}}, "lat": "48.30489885", "lon": "18.06586039951923"}, "type": {"type": "SKLO - ZVON"}, "garbageType": "sklo"}, {"address": {"address": "Jurkovi\u010dova 23", "town": {"town": "Nitra", "region": {"region": "Nitriansk\u00fd"}}, "lat": "48.30420615", "lon": "18.064041139838054"}, "type": {"type": "SKLO - ZVON"}, "garbageType": "sklo"}, {"address": {"address": "Jurkovi\u010dova 1", "town": {"town": "Nitra - Kloko\u010dina", "region": {"region": "Nitriansk\u00fd"}}, "lat": "48.3059383", "lon": "18.067930772729603"}, "type": {"type": "MOLOK SKLO 3m3"}, "garbageType": "sklo"}, {"address": {"address": "Jurkovi\u010dova 28", "town": {"town": "Nitra - Kloko\u010dina", "region": {"region": "Nitriansk\u00fd"}}, "lat": "48.3047097", "lon": "18.0649429"}, "type": {"type": "MOLOK SKLO 3m3"}, "garbageType": "sklo"}, {"address": {"address": "Jurkovi\u010dova 25", "town": {"town": "Nitra - Kloko\u010dina", "region": {"region": "Nitriansk\u00fd"}}, "lat": "48.3042991", "lon": "18.06328530217725"}, "type": {"type": "MOLOK SKLO 3m3"}, "garbageType": "sklo"}, {"address": {"address": "Jurkovi\u010dova 1", "town": {"town": "Nitra - Kloko\u010dina", "region": {"region": "Nitriansk\u00fd"}}, "lat": "48.3059383", "lon": "18.067930772729603"}, "type": {"type": "MOLOK PLAST 5m3"}, "garbageType": "plasty"}, {"address": {"address": "Jurkovi\u010dova 28", "town": {"town": "Nitra - Kloko\u010dina", "region": {"region": "Nitriansk\u00fd"}}, "lat": "48.3047097", "lon": "18.0649429"}, "type": {"type": "MOLOK PLAST 3m3"}, "garbageType": "plasty"}, {"address": {"address": "Jurkovi\u010dova 25", "town": {"town": "Nitra - Kloko\u010dina", "region": {"region": "Nitriansk\u00fd"}}, "lat": "48.3042991", "lon": "18.06328530217725"}, "type": {"type": "MOLOK PLAST 5m3"}, "garbageType": "plasty"}, {"address": {"address": "Ju\u017en\u00e1 19", "town": {"town": "Nitra", "region": {"region": "Nitriansk\u00fd"}}, "lat": "48.297080550000004", "lon": "18.07436608015625"}, "type": {"type": "PLAST 1100 l"}, "garbageType": "plasty"}, {"address": {"address": "Ju\u017en\u00e1 27", "town": {"town": "Nitra", "region": {"region": "Nitriansk\u00fd"}}, "lat": "48.2964206", "lon": "18.07204026005379"}, "type": {"type": "PLAST 1100 l"}, "garbageType": "plasty"}, {"address": {"address": "Ju\u017en\u00e1 43", "town": {"town": "Nitra", "region": {"region": "Nitriansk\u00fd"}}, "lat": "48.2959612", "lon": "18.0705652"}, "type": {"type": "PLAST 1100 l"}, "garbageType": "plasty"}, {"address": {"address": "Ju\u017en\u00e1 6", "town": {"town": "Nitra", "region": {"region": "Nitriansk\u00fd"}}, "lat": "48.2981999", "lon": "18.0746436"}, "type": {"type": "SKLO - ZVON"}, "garbageType": "sklo"}, {"address": {"address": "Ju\u017en\u00e1 15", "town": {"town": "Nitra", "region": {"region": "Nitriansk\u00fd"}}, "lat": "48.2972996", "lon": "18.0747494"}, "type": {"type": "SKLO - ZVON"}, "garbageType": "sklo"}, {"address": {"address": "Ju\u017en\u00e1 23", "town": {"town": "Nitra", "region": {"region": "Nitriansk\u00fd"}}, "lat": "48.29646975", "lon": "18.07296694460002"}, "type": {"type": "SKLO - ZVON"}, "garbageType": "sklo"}, {"address": {"address": "Ju\u017en\u00e1 26", "town": {"town": "Nitra", "region": {"region": "Nitriansk\u00fd"}}, "lat": "48.297007750000006", "lon": "18.073362173717896"}, "type": {"type": "SKLO - ZVON"}, "garbageType": "sklo"}, {"address": {"address": "Ju\u017en\u00e1 43", "town": {"town": "Nitra", "region": {"region": "Nitriansk\u00fd"}}, "lat": "48.2959612", "lon": "18.0705652"}, "type": {"type": "SKLO - ZVON"}, "garbageType": "sklo"}, {"address": {"address": "Kalv\u00e1ria 3", "town": {"town": "Nitra", "region": {"region": "Nitriansk\u00fd"}}, "lat": "48.298216100000005", "lon": "18.09160924719289"}, "type": {"type": "PLAST 1100 l"}, "garbageType": "plasty"}, {"address": {"address": "Kalv\u00e1ria 3", "town": {"town": "Nitra", "region": {"region": "Nitriansk\u00fd"}}, "lat": "48.298216100000005", "lon": "18.09160924719289"}, "type": {"type": "SKLO - ZVON"}, "garbageType": "sklo"}, {"address": {"address": "Karpatsk\u00e1 10", "town": {"town": "Nitra - Chrenov\u00e1", "region": {"region": "Nitriansk\u00fd"}}, "lat": "48.310171749999995", "lon": "18.11055554794872"}, "type": {"type": "MOLOK PLAST 5m3"}, "garbageType": "plasty"}, {"address": {"address": "Karpatsk\u00e1 10", "town": {"town": "Nitra - Chrenov\u00e1", "region": {"region": "Nitriansk\u00fd"}}, "lat": "48.310171749999995", "lon": "18.11055554794872"}, "type": {"type": "MOLOK SKLO 3m3"}, "garbageType": "sklo"}, {"address": {"address": "Kl\u00e1\u0161torsk\u00e1 134", "town": {"town": "Nitra", "region": {"region": "Nitriansk\u00fd"}}, "lat": "48.34525875", "lon": "18.09203269438698"}, "type": {"type": "PLAST 1100 l"}, "garbageType": "plasty"}, {"address": {"address": "Kl\u00e1\u0161torsk\u00e1 134", "town": {"town": "Nitra", "region": {"region": "Nitriansk\u00fd"}}, "lat": "48.34525875", "lon": "18.09203269438698"}, "type": {"type": "SKLO - ZVON"}, "garbageType": "sklo"}, {"address": {"address": "Kme\u0165ova 2", "town": {"town": "Nitra", "region": {"region": "Nitriansk\u00fd"}}, "lat": "47.9870685", "lon": "18.14717661420095"}, "type": {"type": "PLAST 1100 l"}, "garbageType": "plasty"}, {"address": {"address": "Kme\u0165ova 5", "town": {"town": "Nitra", "region": {"region": "Nitriansk\u00fd"}}, "lat": "48.30449295", "lon": "18.05043292726033"}, "type": {"type": "PLAST 1100 l"}, "garbageType": "plasty"}, {"address": {"address": "Kme\u0165ova 14", "town": {"town": "Nitra", "region": {"region": "Nitriansk\u00fd"}}, "lat": "47.98871135", "lon": "18.145187401311077"}, "type": {"type": "PLAST 1100 l"}, "garbageType": "plasty"}, {"address": {"address": "Kme\u0165ova 2", "town": {"town": "Nitra", "region": {"region": "Nitriansk\u00fd"}}, "lat": "47.9870685", "lon": "18.14717661420095"}, "type": {"type": "SKLO - ZVON"}, "garbageType": "sklo"}, {"address": {"address": "Kme\u0165ova 5", "town": {"town": "Nitra", "region": {"region": "Nitriansk\u00fd"}}, "lat": "48.30449295", "lon": "18.05043292726033"}, "type": {"type": "SKLO - ZVON"}, "garbageType": "sklo"}, {"address": {"address": "Kozmonautov 5", "town": {"town": "Nitra", "region": {"region": "Nitriansk\u00fd"}}, "lat": "48.3128298", "lon": "18.10648966215713"}, "type": {"type": "PLAST 1100 l"}, "garbageType": "plasty"}, {"address": {"address": "Kozmonautov 14", "town": {"town": "Nitra", "region": {"region": "Nitriansk\u00fd"}}, "lat": "48.313155", "lon": "18.10556387641096"}, "type": {"type": "PLAST 1100 l"}, "garbageType": "plasty"}, {"address": {"address": "Kozmonautov 14", "town": {"town": "Nitra", "region": {"region": "Nitriansk\u00fd"}}, "lat": "48.313155", "lon": "18.10556387641096"}, "type": {"type": "SKLO - ZVON"}, "garbageType": "sklo"}, {"address": {"address": "Kr\u010dm\u00e9ryho 2A", "town": {"town": "Nitra", "region": {"region": "Nitriansk\u00fd"}}, "lat": "48.297475", "lon": "18.0834508"}, "type": {"type": "PLAST 1100 l"}, "garbageType": "plasty"}, {"address": {"address": "Kr\u010dm\u00e9ryho 2", "town": {"town": "Nitra", "region": {"region": "Nitriansk\u00fd"}}, "lat": "48.2978598", "lon": "18.081998523773564"}, "type": {"type": "PLAST 1100 l"}, "garbageType": "plasty"}, {"address": {"address": "Kr\u010dm\u00e9ryho 2/C", "town": {"town": "Nitra", "region": {"region": "Nitriansk\u00fd"}}, "lat": "48.2978598", "lon": "18.081998523773564"}, "type": {"type": "PLAST 1100 l"}, "garbageType": "plasty"}, {"address": {"address": "Kremnick\u00e1 1", "town": {"town": "Nitra", "region": {"region": "Nitriansk\u00fd"}}, "lat": "48.31002125", "lon": "18.109291357892022"}, "type": {"type": "PLAST 1100 l"}, "garbageType": "plasty"}, {"address": {"address": "Kremnick\u00e1 1", "town": {"town": "Nitra", "region": {"region": "Nitriansk\u00fd"}}, "lat": "48.31002125", "lon": "18.109291357892022"}, "type": {"type": "SKLO - ZVON"}, "garbageType": "sklo"}, {"address": {"address": "Kr\u0161kansk\u00e1 2", "town": {"town": "Nitra", "region": {"region": "Nitriansk\u00fd"}}, "lat": "48.2846302", "lon": "18.0908578"}, "type": {"type": "PLAST 1100 l"}, "garbageType": "plasty"}, {"address": {"address": "K\u00fape\u013en\u00e1 4", "town": {"town": "Nitra", "region": {"region": "Nitriansk\u00fd"}}, "lat": "48.3124471", "lon": "18.0895259"}, "type": {"type": "PLAST 1100 l"}, "garbageType": "plasty"}, {"address": {"address": "\u013d. Ok\u00e1nika 6", "town": {"town": "Nitra", "region": {"region": "Nitriansk\u00fd"}}, "lat": "48.312716300000005", "lon": "18.09888377574628"}, "type": {"type": "PLAST 1100 l"}, "garbageType": "plasty"}, {"address": {"address": "Lehotsk\u00e1 4", "town": {"town": "Nitra", "region": {"region": "Nitriansk\u00fd"}}, "lat": "48.3141393", "lon": "18.0309281"}, "type": {"type": "PLAST 1100 l"}, "garbageType": "plasty"}, {"address": {"address": "Lesn\u00e1 2", "town": {"town": "Nitra - Chrenov\u00e1", "region": {"region": "Nitriansk\u00fd"}}, "lat": "48.31041195", "lon": "18.099605737466028"}, "type": {"type": "MOLOK SKLO 3m3"}, "garbageType": "sklo"}, {"address": {"address": "Lesn\u00e1 2", "town": {"town": "Nitra - Chrenov\u00e1", "region": {"region": "Nitriansk\u00fd"}}, "lat": "48.31041195", "lon": "18.099605737466028"}, "type": {"type": "MOLOK PLAST 5m3"}, "garbageType": "plasty"}, {"address": {"address": "Levick\u00e1 11", "town": {"town": "Nitra - Chrenov\u00e1", "region": {"region": "Nitriansk\u00fd"}}, "lat": "48.3165184", "lon": "18.1115564"}, "type": {"type": "PLAST 1100 l"}, "garbageType": "plasty"}, {"address": {"address": "Levick\u00e1 9", "town": {"town": "Nitra - Chrenov\u00e1", "region": {"region": "Nitriansk\u00fd"}}, "lat": "48.31511835", "lon": "18.11554633691535"}, "type": {"type": "PLAST 1100 l"}, "garbageType": "plasty"}, {"address": {"address": "Levick\u00e1 7", "town": {"town": "Nitra - Chrenov\u00e1", "region": {"region": "Nitriansk\u00fd"}}, "lat": "48.31561015", "lon": "18.114533130546818"}, "type": {"type": "PLAST 1100 l"}, "garbageType": "plasty"}, {"address": {"address": "Levick\u00e1 3", "town": {"town": "Nitra - Chrenov\u00e1", "region": {"region": "Nitriansk\u00fd"}}, "lat": "48.3175711", "lon": "18.113507050000003"}, "type": {"type": "PLAST 1100 l"}, "garbageType": "plasty"}, {"address": {"address": "Lipov\u00e1 1-2", "town": {"town": "Nitra - Chrenov\u00e1", "region": {"region": "Nitriansk\u00fd"}}, "lat": "48.3118521", "lon": "18.1026105"}, "type": {"type": "MOLOK SKLO 3m3"}, "garbageType": "sklo"}, {"address": {"address": "Lipov\u00e1 1-2", "town": {"town": "Nitra - Chrenov\u00e1", "region": {"region": "Nitriansk\u00fd"}}, "lat": "48.3118521", "lon": "18.1026105"}, "type": {"type": "MOLOK PLAST 5m3"}, "garbageType": "plasty"}, {"address": {"address": "Lomnick\u00e1 2", "town": {"town": "Nitra", "region": {"region": "Nitriansk\u00fd"}}, "lat": "48.31526955", "lon": "18.100452893433186"}, "type": {"type": "PLAST 1100 l"}, "garbageType": "plasty"}, {"address": {"address": "Lomnick\u00e1 20", "town": {"town": "Nitra", "region": {"region": "Nitriansk\u00fd"}}, "lat": "48.3137797", "lon": "18.10083002242647"}, "type": {"type": "PLAST 1100 l"}, "garbageType": "plasty"}, {"address": {"address": "Lomnick\u00e1 2", "town": {"town": "Nitra", "region": {"region": "Nitriansk\u00fd"}}, "lat": "48.31526955", "lon": "18.100452893433186"}, "type": {"type": "SKLO - ZVON"}, "garbageType": "sklo"}, {"address": {"address": "L\u00fa\u010dna 3", "town": {"town": "Nitra - Chrenov\u00e1", "region": {"region": "Nitriansk\u00fd"}}, "lat": "48.309563100000005", "lon": "18.100552062328987"}, "type": {"type": "MOLOK PLAST 5m3"}, "garbageType": "plasty"}, {"address": {"address": "L\u00fa\u010dna 3", "town": {"town": "Nitra - Chrenov\u00e1", "region": {"region": "Nitriansk\u00fd"}}, "lat": "48.309563100000005", "lon": "18.100552062328987"}, "type": {"type": "MOLOK SKLO 3m3"}, "garbageType": "sklo"}, {"address": {"address": "\u013dUDOV\u00cdTA OK\u00c1NIKA 2", "town": {"town": "Nitra - Chrenov\u00e1", "region": {"region": "Nitriansk\u00fd"}}, "lat": "48.3123272", "lon": "18.096086738729262"}, "type": {"type": "MOLOK SKLO 3m3"}, "garbageType": "sklo"}, {"address": {"address": "\u013dUDOV\u00cdTA OK\u00c1NIKA 4", "town": {"town": "Nitra - Chrenov\u00e1", "region": {"region": "Nitriansk\u00fd"}}, "lat": "48.31248655", "lon": "18.097673031460694"}, "type": {"type": "MOLOK SKLO 3m3"}, "garbageType": "sklo"}, {"address": {"address": "\u013dUDOV\u00cdTA OK\u00c1NIKA 14", "town": {"town": "Nitra - Chrenov\u00e1", "region": {"region": "Nitriansk\u00fd"}}, "lat": "48.3113529", "lon": "18.09717313702814"}, "type": {"type": "MOLOK SKLO 3m3"}, "garbageType": "sklo"}, {"address": {"address": "\u013dUDOV\u00cdTA OK\u00c1NIKA 2", "town": {"town": "Nitra - Chrenov\u00e1", "region": {"region": "Nitriansk\u00fd"}}, "lat": "48.3123272", "lon": "18.096086738729262"}, "type": {"type": "MOLOK PLAST 5m3"}, "garbageType": "plasty"}, {"address": {"address": "\u013dUDOV\u00cdTA OK\u00c1NIKA 4", "town": {"town": "Nitra - Chrenov\u00e1", "region": {"region": "Nitriansk\u00fd"}}, "lat": "48.31248655", "lon": "18.097673031460694"}, "type": {"type": "MOLOK PLAST 5m3"}, "garbageType": "plasty"}, {"address": {"address": "\u013dUDOV\u00cdTA OK\u00c1NIKA 14", "town": {"town": "Nitra - Chrenov\u00e1", "region": {"region": "Nitriansk\u00fd"}}, "lat": "48.3113529", "lon": "18.09717313702814"}, "type": {"type": "MOLOK PLAST 5m3"}, "garbageType": "plasty"}, {"address": {"address": "\u013dUDOV\u00cdTA OK\u00c1NIKA 8", "town": {"town": "Nitra - Chrenov\u00e1", "region": {"region": "Nitriansk\u00fd"}}, "lat": "48.31270065", "lon": "18.099816487127555"}, "type": {"type": "MOLOK SKLO 3m3"}, "garbageType": "sklo"}, {"address": {"address": "\u013dUDOV\u00cdTA OK\u00c1NIKA 8", "town": {"town": "Nitra - Chrenov\u00e1", "region": {"region": "Nitriansk\u00fd"}}, "lat": "48.31270065", "lon": "18.099816487127555"}, "type": {"type": "MOLOK PLAST 5m3"}, "garbageType": "plasty"}, {"address": {"address": "LUKOV DVOR 1", "town": {"town": "Nitra", "region": {"region": "Nitriansk\u00fd"}}, "lat": "48.2952307", "lon": "18.0420603"}, "type": {"type": "PLAST 1100 l"}, "garbageType": "plasty"}, {"address": {"address": "LUKOV DVOR 1", "town": {"town": "Nitra", "region": {"region": "Nitriansk\u00fd"}}, "lat": "48.2952307", "lon": "18.0420603"}, "type": {"type": "SKLO - ZVON"}, "garbageType": "sklo"}, {"address": {"address": "Mati\u010dn\u00e1 2", "town": {"town": "Nitra", "region": {"region": "Nitriansk\u00fd"}}, "lat": "48.2966412", "lon": "18.0645849"}, "type": {"type": "PLAST 1100 l"}, "garbageType": "plasty"}, {"address": {"address": "Mikov\u00edniho 4", "town": {"town": "Nitra", "region": {"region": "Nitriansk\u00fd"}}, "lat": "48.30381575", "lon": "18.061461174284574"}, "type": {"type": "PLAST 1100 l"}, "garbageType": "plasty"}, {"address": {"address": "Mikov\u00edniho 4", "town": {"town": "Nitra", "region": {"region": "Nitriansk\u00fd"}}, "lat": "48.30381575", "lon": "18.061461174284574"}, "type": {"type": "SKLO - ZVON"}, "garbageType": "sklo"}, {"address": {"address": "Mikov\u00edniho 10-16", "town": {"town": "Nitra - Kloko\u010dina", "region": {"region": "Nitriansk\u00fd"}}, "lat": "48.3034583", "lon": "18.0601707"}, "type": {"type": "MOLOK SKLO 3m3"}, "garbageType": "sklo"}, {"address": {"address": "Mikov\u00edniho 10-16", "town": {"town": "Nitra - Kloko\u010dina", "region": {"region": "Nitriansk\u00fd"}}, "lat": "48.3034583", "lon": "18.0601707"}, "type": {"type": "MOLOK PLAST 5m3"}, "garbageType": "plasty"}, {"address": {"address": "MISION\u00c1RSKA 3", "town": {"town": "Nitra", "region": {"region": "Nitriansk\u00fd"}}, "lat": "48.299451950000005", "lon": "18.089627214261952"}, "type": {"type": "PLAST 1100 l"}, "garbageType": "plasty"}, {"address": {"address": "MISION\u00c1RSKA 3", "town": {"town": "Nitra", "region": {"region": "Nitriansk\u00fd"}}, "lat": "48.299451950000005", "lon": "18.089627214261952"}, "type": {"type": "SKLO - ZVON"}, "garbageType": "sklo"}, {"address": {"address": "Mostn\u00e1 14", "town": {"town": "Nitra", "region": {"region": "Nitriansk\u00fd"}}, "lat": "48.31658455", "lon": "18.091908741769743"}, "type": {"type": "PLAST 1100 l"}, "garbageType": "plasty"}, {"address": {"address": "Mostn\u00e1 14", "town": {"town": "Nitra", "region": {"region": "Nitriansk\u00fd"}}, "lat": "48.31658455", "lon": "18.091908741769743"}, "type": {"type": "SKLO - ZVON"}, "garbageType": "sklo"}, {"address": {"address": "Mostn\u00e1 15", "town": {"town": "Nitra", "region": {"region": "Nitriansk\u00fd"}}, "lat": "48.3148862", "lon": "18.0882062"}, "type": {"type": "SKLO - ZVON"}, "garbageType": "sklo"}, {"address": {"address": "Mudro\u0148ova 24", "town": {"town": "Nitra", "region": {"region": "Nitriansk\u00fd"}}, "lat": "48.2098723", "lon": "18.611611234866615"}, "type": {"type": "PLAST 1100 l"}, "garbageType": "plasty"}, {"address": {"address": "MUR\u00c1NIHO 11", "town": {"town": "Nitra", "region": {"region": "Nitriansk\u00fd"}}, "lat": "48.30558165", "lon": "18.049737549637683"}, "type": {"type": "PLAST 1100 l"}, "garbageType": "plasty"}, {"address": {"address": "MUR\u00c1NIHO 17", "town": {"town": "Nitra", "region": {"region": "Nitriansk\u00fd"}}, "lat": "48.30589175", "lon": "18.049374996242747"}, "type": {"type": "PLAST 1100 l"}, "garbageType": "plasty"}, {"address": {"address": "MUR\u00c1NIHO 25", "town": {"town": "Nitra", "region": {"region": "Nitriansk\u00fd"}}, "lat": "48.306323899999995", "lon": "18.048869674507298"}, "type": {"type": "PLAST 1100 l"}, "garbageType": "plasty"}, {"address": {"address": "MUR\u00c1NIHO 11", "town": {"town": "Nitra", "region": {"region": "Nitriansk\u00fd"}}, "lat": "48.30558165", "lon": "18.049737549637683"}, "type": {"type": "SKLO - ZVON"}, "garbageType": "sklo"}, {"address": {"address": "MUR\u00c1NIHO 17", "town": {"town": "Nitra", "region": {"region": "Nitriansk\u00fd"}}, "lat": "48.30589175", "lon": "18.049374996242747"}, "type": {"type": "SKLO - ZVON"}, "garbageType": "sklo"}, {"address": {"address": "MUR\u00c1NIHO 25", "town": {"town": "Nitra", "region": {"region": "Nitriansk\u00fd"}}, "lat": "48.306323899999995", "lon": "18.048869674507298"}, "type": {"type": "SKLO - ZVON"}, "garbageType": "sklo"}, {"address": {"address": "Murga\u0161ova 5", "town": {"town": "Nitra - \u010cerm\u00e1\u0148", "region": {"region": "Nitriansk\u00fd"}}, "lat": "48.291284149999996", "lon": "18.07711743064757"}, "type": {"type": "PLAST 1100 l"}, "garbageType": "plasty"}, {"address": {"address": "Na H\u00f4rke 2", "town": {"town": "Nitra", "region": {"region": "Nitriansk\u00fd"}}, "lat": "48.3043823", "lon": "18.0472683"}, "type": {"type": "PLAST 1100 l"}, "garbageType": "plasty"}, {"address": {"address": "Na H\u00f4rke 17", "town": {"town": "Nitra", "region": {"region": "Nitriansk\u00fd"}}, "lat": "48.3043823", "lon": "18.0472683"}, "type": {"type": "PLAST 1100 l"}, "garbageType": "plasty"}, {"address": {"address": "Na H\u00f4rke 27", "town": {"town": "Nitra", "region": {"region": "Nitriansk\u00fd"}}, "lat": "48.3043823", "lon": "18.0472683"}, "type": {"type": "PLAST 1100 l"}, "garbageType": "plasty"}, {"address": {"address": "Na H\u00f4rke 26", "town": {"town": "Nitra", "region": {"region": "Nitriansk\u00fd"}}, "lat": "48.3043823", "lon": "18.0472683"}, "type": {"type": "PLAST 1100 l"}, "garbageType": "plasty"}, {"address": {"address": "Na H\u00f4rke 35", "town": {"town": "Nitra", "region": {"region": "Nitriansk\u00fd"}}, "lat": "48.3043823", "lon": "18.0472683"}, "type": {"type": "PLAST 1100 l"}, "garbageType": "plasty"}, {"address": {"address": "Na H\u00f4rke 36", "town": {"town": "Nitra", "region": {"region": "Nitriansk\u00fd"}}, "lat": "48.3043823", "lon": "18.0472683"}, "type": {"type": "PLAST 1100 l"}, "garbageType": "plasty"}, {"address": {"address": "Na H\u00f4rke 44", "town": {"town": "Nitra", "region": {"region": "Nitriansk\u00fd"}}, "lat": "48.3043823", "lon": "18.0472683"}, "type": {"type": "PLAST 1100 l"}, "garbageType": "plasty"}, {"address": {"address": "Na H\u00f4rke 17", "town": {"town": "Nitra", "region": {"region": "Nitriansk\u00fd"}}, "lat": "48.3043823", "lon": "18.0472683"}, "type": {"type": "SKLO - ZVON"}, "garbageType": "sklo"}, {"address": {"address": "Na H\u00f4rke 27", "town": {"town": "Nitra", "region": {"region": "Nitriansk\u00fd"}}, "lat": "48.3043823", "lon": "18.0472683"}, "type": {"type": "SKLO - ZVON"}, "garbageType": "sklo"}, {"address": {"address": "Na H\u00f4rke 36", "town": {"town": "Nitra", "region": {"region": "Nitriansk\u00fd"}}, "lat": "48.3043823", "lon": "18.0472683"}, "type": {"type": "SKLO - ZVON"}, "garbageType": "sklo"}, {"address": {"address": "Na H\u00f4rke 50", "town": {"town": "Nitra", "region": {"region": "Nitriansk\u00fd"}}, "lat": "48.3043823", "lon": "18.0472683"}, "type": {"type": "SKLO - ZVON"}, "garbageType": "sklo"}, {"address": {"address": "NA PRIEHON 50", "town": {"town": "Nitra - Doln\u00e9 Kr\u0161kany", "region": {"region": "Nitriansk\u00fd"}}, "lat": "48.2703544", "lon": "18.0919527"}, "type": {"type": "PLAST 1100 l"}, "garbageType": "plasty"}, {"address": {"address": "N\u00e1bre\u017eie ml\u00e1de\u017ee 91", "town": {"town": "Nitra - Chrenov\u00e1", "region": {"region": "Nitriansk\u00fd"}}, "lat": "48.3032031", "lon": "18.0937777"}, "type": {"type": "PLAST 1100 l"}, "garbageType": "plasty"}, {"address": {"address": "N\u00e1bre\u017eie ml\u00e1de\u017ee 13", "town": {"town": "Nitra", "region": {"region": "Nitriansk\u00fd"}}, "lat": "48.315773300000004", "lon": "18.097823802715816"}, "type": {"type": "PLAST 1100 l"}, "garbageType": "plasty"}, {"address": {"address": "N\u00e1bre\u017eie ml\u00e1de\u017ee 39", "town": {"town": "Nitra", "region": {"region": "Nitriansk\u00fd"}}, "lat": "48.31510995", "lon": "18.09810822945971"}, "type": {"type": "PLAST 1100 l"}, "garbageType": "plasty"}, {"address": {"address": "N\u00e1bre\u017eie ml\u00e1de\u017ee 41", "town": {"town": "Nitra", "region": {"region": "Nitriansk\u00fd"}}, "lat": "48.31461475", "lon": "18.09739107297048"}, "type": {"type": "PLAST 1100 l"}, "garbageType": "plasty"}, {"address": {"address": "N\u00e1bre\u017eie ml\u00e1de\u017ee 51", "town": {"town": "Nitra", "region": {"region": "Nitriansk\u00fd"}}, "lat": "48.31378545", "lon": "18.096514418728226"}, "type": {"type": "PLAST 1100 l"}, "garbageType": "plasty"}, {"address": {"address": "N\u00e1bre\u017eie ml\u00e1de\u017ee 79", "town": {"town": "Nitra", "region": {"region": "Nitriansk\u00fd"}}, "lat": "48.31360535", "lon": "18.09809378532004"}, "type": {"type": "PLAST 1100 l"}, "garbageType": "plasty"}, {"address": {"address": "N\u00e1bre\u017eie ml\u00e1de\u017ee 1", "town": {"town": "Nitra", "region": {"region": "Nitriansk\u00fd"}}, "lat": "48.31697305", "lon": "18.09695312354623"}, "type": {"type": "PLAST 1100 l"}, "garbageType": "plasty"}, {"address": {"address": "N\u00e1bre\u017eie ml\u00e1de\u017ee 79", "town": {"town": "Nitra", "region": {"region": "Nitriansk\u00fd"}}, "lat": "48.31360535", "lon": "18.09809378532004"}, "type": {"type": "SKLO - ZVON"}, "garbageType": "sklo"}, {"address": {"address": "N\u00e1m. J\u00e1na Pavla II. 5", "town": {"town": "Nitra", "region": {"region": "Nitriansk\u00fd"}}, "lat": "48.3181899", "lon": "18.0881287"}, "type": {"type": "PLAST 1100 l"}, "garbageType": "plasty"}, {"address": {"address": "N\u00e1m. J\u00e1na Pavla II. 5", "town": {"town": "Nitra", "region": {"region": "Nitriansk\u00fd"}}, "lat": "48.3181899", "lon": "18.0881287"}, "type": {"type": "SKLO - ZVON"}, "garbageType": "sklo"}, {"address": {"address": "Nedbalova 1", "town": {"town": "Nitra", "region": {"region": "Nitriansk\u00fd"}}, "lat": "48.29563495", "lon": "18.064673842651345"}, "type": {"type": "PLAST 1100 l"}, "garbageType": "plasty"}, {"address": {"address": "Nedbalova 13", "town": {"town": "Nitra", "region": {"region": "Nitriansk\u00fd"}}, "lat": "48.2966756", "lon": "18.063454245978342"}, "type": {"type": "PLAST 1100 l"}, "garbageType": "plasty"}, {"address": {"address": "Nedbalova 1", "town": {"town": "Nitra", "region": {"region": "Nitriansk\u00fd"}}, "lat": "48.29563495", "lon": "18.064673842651345"}, "type": {"type": "SKLO - ZVON"}, "garbageType": "sklo"}, {"address": {"address": "Nedbalova 13", "town": {"town": "Nitra", "region": {"region": "Nitriansk\u00fd"}}, "lat": "48.2966756", "lon": "18.063454245978342"}, "type": {"type": "SKLO - ZVON"}, "garbageType": "sklo"}, {"address": {"address": "Novomesk\u00e9ho 2", "town": {"town": "Nitra", "region": {"region": "Nitriansk\u00fd"}}, "lat": "48.2992194", "lon": "18.06517832420507"}, "type": {"type": "PLAST 1100 l"}, "garbageType": "plasty"}, {"address": {"address": "Novomesk\u00e9ho 6", "town": {"town": "Nitra", "region": {"region": "Nitriansk\u00fd"}}, "lat": "48.2999187", "lon": "18.06428389048387"}, "type": {"type": "PLAST 1100 l"}, "garbageType": "plasty"}, {"address": {"address": "Novomesk\u00e9ho 10", "town": {"town": "Nitra", "region": {"region": "Nitriansk\u00fd"}}, "lat": "48.30025275", "lon": "18.063388742598676"}, "type": {"type": "PLAST 1100 l"}, "garbageType": "plasty"}, {"address": {"address": "Novomesk\u00e9ho 12", "town": {"town": "Nitra", "region": {"region": "Nitriansk\u00fd"}}, "lat": "48.3003964", "lon": "18.061477499999995"}, "type": {"type": "PLAST 1100 l"}, "garbageType": "plasty"}, {"address": {"address": "Novomesk\u00e9ho 17", "town": {"town": "Nitra", "region": {"region": "Nitriansk\u00fd"}}, "lat": "48.2995899", "lon": "18.06276213386702"}, "type": {"type": "PLAST 1100 l"}, "garbageType": "plasty"}, {"address": {"address": "Novomesk\u00e9ho 21", "town": {"town": "Nitra", "region": {"region": "Nitriansk\u00fd"}}, "lat": "48.2993133", "lon": "18.062156187356322"}, "type": {"type": "PLAST 1100 l"}, "garbageType": "plasty"}, {"address": {"address": "Novomesk\u00e9ho 27", "town": {"town": "Nitra", "region": {"region": "Nitriansk\u00fd"}}, "lat": "48.298998350000005", "lon": "18.061592958039892"}, "type": {"type": "PLAST 1100 l"}, "garbageType": "plasty"}, {"address": {"address": "Novomesk\u00e9ho 33", "town": {"town": "Nitra", "region": {"region": "Nitriansk\u00fd"}}, "lat": "48.29858245", "lon": "18.061300932047615"}, "type": {"type": "PLAST 1100 l"}, "garbageType": "plasty"}, {"address": {"address": "Novomesk\u00e9ho 39", "town": {"town": "Nitra", "region": {"region": "Nitriansk\u00fd"}}, "lat": "48.29814425", "lon": "18.061044539238765"}, "type": {"type": "PLAST 1100 l"}, "garbageType": "plasty"}, {"address": {"address": "Novomesk\u00e9ho 45", "town": {"town": "Nitra", "region": {"region": "Nitriansk\u00fd"}}, "lat": "48.2977282", "lon": "18.06066465"}, "type": {"type": "PLAST 1100 l"}, "garbageType": "plasty"}, {"address": {"address": "Novomesk\u00e9ho 57", "town": {"town": "Nitra", "region": {"region": "Nitriansk\u00fd"}}, "lat": "48.29705195", "lon": "18.0591363"}, "type": {"type": "PLAST 1100 l"}, "garbageType": "plasty"}, {"address": {"address": "Novomesk\u00e9ho 63", "town": {"town": "Nitra", "region": {"region": "Nitriansk\u00fd"}}, "lat": "48.2973183", "lon": "18.058361356"}, "type": {"type": "PLAST 1100 l"}, "garbageType": "plasty"}, {"address": {"address": "Novomesk\u00e9ho 71", "town": {"town": "Nitra", "region": {"region": "Nitriansk\u00fd"}}, "lat": "48.2981728", "lon": "18.058042935732328"}, "type": {"type": "PLAST 1100 l"}, "garbageType": "plasty"}, {"address": {"address": "Novomesk\u00e9ho 75", "town": {"town": "Nitra", "region": {"region": "Nitriansk\u00fd"}}, "lat": "48.298463999999996", "lon": "18.05827089631734"}, "type": {"type": "PLAST 1100 l"}, "garbageType": "plasty"}, {"address": {"address": "Novomesk\u00e9ho 2", "town": {"town": "Nitra", "region": {"region": "Nitriansk\u00fd"}}, "lat": "48.2992194", "lon": "18.06517832420507"}, "type": {"type": "SKLO - ZVON"}, "garbageType": "sklo"}, {"address": {"address": "Novomesk\u00e9ho 6", "town": {"town": "Nitra", "region": {"region": "Nitriansk\u00fd"}}, "lat": "48.2999187", "lon": "18.06428389048387"}, "type": {"type": "SKLO - ZVON"}, "garbageType": "sklo"}, {"address": {"address": "Novomesk\u00e9ho 12", "town": {"town": "Nitra", "region": {"region": "Nitriansk\u00fd"}}, "lat": "48.3003964", "lon": "18.061477499999995"}, "type": {"type": "SKLO - ZVON"}, "garbageType": "sklo"}, {"address": {"address": "Novomesk\u00e9ho 17", "town": {"town": "Nitra", "region": {"region": "Nitriansk\u00fd"}}, "lat": "48.2995899", "lon": "18.06276213386702"}, "type": {"type": "SKLO - ZVON"}, "garbageType": "sklo"}, {"address": {"address": "Novomesk\u00e9ho 21", "town": {"town": "Nitra", "region": {"region": "Nitriansk\u00fd"}}, "lat": "48.2993133", "lon": "18.062156187356322"}, "type": {"type": "SKLO - ZVON"}, "garbageType": "sklo"}, {"address": {"address": "Novomesk\u00e9ho 27", "town": {"town": "Nitra", "region": {"region": "Nitriansk\u00fd"}}, "lat": "48.298998350000005", "lon": "18.061592958039892"}, "type": {"type": "SKLO - ZVON"}, "garbageType": "sklo"}, {"address": {"address": "Novomesk\u00e9ho 33", "town": {"town": "Nitra", "region": {"region": "Nitriansk\u00fd"}}, "lat": "48.29858245", "lon": "18.061300932047615"}, "type": {"type": "SKLO - ZVON"}, "garbageType": "sklo"}, {"address": {"address": "Novomesk\u00e9ho 39", "town": {"town": "Nitra", "region": {"region": "Nitriansk\u00fd"}}, "lat": "48.29814425", "lon": "18.061044539238765"}, "type": {"type": "SKLO - ZVON"}, "garbageType": "sklo"}, {"address": {"address": "Novomesk\u00e9ho 45", "town": {"town": "Nitra", "region": {"region": "Nitriansk\u00fd"}}, "lat": "48.2977282", "lon": "18.06066465"}, "type": {"type": "SKLO - ZVON"}, "garbageType": "sklo"}, {"address": {"address": "Novomesk\u00e9ho 57", "town": {"town": "Nitra", "region": {"region": "Nitriansk\u00fd"}}, "lat": "48.29705195", "lon": "18.0591363"}, "type": {"type": "SKLO - ZVON"}, "garbageType": "sklo"}, {"address": {"address": "Novomesk\u00e9ho 63", "town": {"town": "Nitra", "region": {"region": "Nitriansk\u00fd"}}, "lat": "48.2973183", "lon": "18.058361356"}, "type": {"type": "SKLO - ZVON"}, "garbageType": "sklo"}, {"address": {"address": "Novomesk\u00e9ho 71", "town": {"town": "Nitra", "region": {"region": "Nitriansk\u00fd"}}, "lat": "48.2981728", "lon": "18.058042935732328"}, "type": {"type": "SKLO - ZVON"}, "garbageType": "sklo"}, {"address": {"address": "Partiz\u00e1nska 89", "town": {"town": "Nitra", "region": {"region": "Nitriansk\u00fd"}}, "lat": "48.3076344", "lon": "18.0616966"}, "type": {"type": "PLAST 1100 l"}, "garbageType": "plasty"}, {"address": {"address": "Novomesk\u00e9ho 75", "town": {"town": "Nitra", "region": {"region": "Nitriansk\u00fd"}}, "lat": "48.298463999999996", "lon": "18.05827089631734"}, "type": {"type": "SKLO - ZVON"}, "garbageType": "sklo"}, {"address": {"address": "Novoz\u00e1mock\u00e1 67", "town": {"town": "Nitra - Doln\u00e9 Kr\u0161kany", "region": {"region": "Nitriansk\u00fd"}}, "lat": "48.2649866", "lon": "18.1033491"}, "type": {"type": "PLAST 1100 l"}, "garbageType": "plasty"}, {"address": {"address": "Novoz\u00e1mock\u00e1 0", "town": {"town": "Nitra - Horn\u00e9 Kr\u0161kany", "region": {"region": "Nitriansk\u00fd"}}, "lat": "48.2882923", "lon": "18.0848891"}, "type": {"type": "PLAST 1100 l"}, "garbageType": "plasty"}, {"address": {"address": "Novoz\u00e1mock\u00e1 0", "town": {"town": "Nitra - Horn\u00e9 Kr\u0161kany", "region": {"region": "Nitriansk\u00fd"}}, "lat": "48.2882923", "lon": "18.0848891"}, "type": {"type": "PLAST 1100 l"}, "garbageType": "plasty"}, {"address": {"address": "Novoz\u00e1mock\u00e1 0", "town": {"town": "Nitra - Horn\u00e9 Kr\u0161kany", "region": {"region": "Nitriansk\u00fd"}}, "lat": "48.2882923", "lon": "18.0848891"}, "type": {"type": "SKLO - ZVON"}, "garbageType": "sklo"}, {"address": {"address": "Novoz\u00e1mock\u00e1 110", "town": {"town": "Nitra", "region": {"region": "Nitriansk\u00fd"}}, "lat": "48.24711965", "lon": "18.110978675576167"}, "type": {"type": "PLAST 1100 l"}, "garbageType": "plasty"}, {"address": {"address": "Novoz\u00e1mock\u00e1 64", "town": {"town": "Nitra", "region": {"region": "Nitriansk\u00fd"}}, "lat": "48.2364331", "lon": "18.124085483933932"}, "type": {"type": "SKLO - ZVON"}, "garbageType": "sklo"}, {"address": {"address": "Novoz\u00e1mock\u00e1 110", "town": {"town": "Nitra", "region": {"region": "Nitriansk\u00fd"}}, "lat": "48.24711965", "lon": "18.110978675576167"}, "type": {"type": "SKLO - ZVON"}, "garbageType": "sklo"}, {"address": {"address": "Oravsk\u00e1 10", "town": {"town": "Nitra - Zobor", "region": {"region": "Nitriansk\u00fd"}}, "lat": "48.3302691", "lon": "18.085637306894547"}, "type": {"type": "PLAST 1100 l"}, "garbageType": "plasty"}, {"address": {"address": "PARKOV\u00c9 N\u00c1BRE\u017dIE 13", "town": {"town": "Nitra", "region": {"region": "Nitriansk\u00fd"}}, "lat": "48.3145911", "lon": "18.076348"}, "type": {"type": "PLAST 1100 l"}, "garbageType": "plasty"}, {"address": {"address": "PARKOV\u00c9 N\u00c1BRE\u017dIE 13", "town": {"town": "Nitra", "region": {"region": "Nitriansk\u00fd"}}, "lat": "48.3145911", "lon": "18.076348"}, "type": {"type": "SKLO - ZVON"}, "garbageType": "sklo"}, {"address": {"address": "P\u00e1rovsk\u00e1 11", "town": {"town": "Nitra", "region": {"region": "Nitriansk\u00fd"}}, "lat": "48.3102502", "lon": "18.08022380157108"}, "type": {"type": "PLAST 1100 l"}, "garbageType": "plasty"}, {"address": {"address": "P\u00e1rovsk\u00e1 18", "town": {"town": "Nitra", "region": {"region": "Nitriansk\u00fd"}}, "lat": "48.311567249999996", "lon": "18.080701592302887"}, "type": {"type": "PLAST 1100 l"}, "garbageType": "plasty"}, {"address": {"address": "P\u00e1rovsk\u00e1 32", "town": {"town": "Nitra", "region": {"region": "Nitriansk\u00fd"}}, "lat": "48.31115815", "lon": "18.079438615670295"}, "type": {"type": "PLAST 1100 l"}, "garbageType": "plasty"}, {"address": {"address": "P\u00e1rovsk\u00e1 1", "town": {"town": "Nitra", "region": {"region": "Nitriansk\u00fd"}}, "lat": "48.3114298", "lon": "18.081736583749585"}, "type": {"type": "PLAST 1100 l"}, "garbageType": "plasty"}, {"address": {"address": "P\u00e1rovsk\u00e1 20", "town": {"town": "Nitra", "region": {"region": "Nitriansk\u00fd"}}, "lat": "48.311224", "lon": "18.0808335513985"}, "type": {"type": "SKLO - ZVON"}, "garbageType": "sklo"}, {"address": {"address": "P\u00e1rovsk\u00e1 44", "town": {"town": "Nitra", "region": {"region": "Nitriansk\u00fd"}}, "lat": "48.3110432", "lon": "18.0809152"}, "type": {"type": "SKLO - ZVON"}, "garbageType": "sklo"}, {"address": {"address": "P\u00e1rovsk\u00e1 18", "town": {"town": "Nitra", "region": {"region": "Nitriansk\u00fd"}}, "lat": "48.311567249999996", "lon": "18.080701592302887"}, "type": {"type": "SKLO - ZVON"}, "garbageType": "sklo"}, {"address": {"address": "Partiz\u00e1nska 57", "town": {"town": "Nitra", "region": {"region": "Nitriansk\u00fd"}}, "lat": "48.3036422", "lon": "18.05719704092191"}, "type": {"type": "PLAST 1100 l"}, "garbageType": "plasty"}, {"address": {"address": "Partiz\u00e1nska 65", "town": {"town": "Nitra", "region": {"region": "Nitriansk\u00fd"}}, "lat": "48.303361100000004", "lon": "18.05568178252235"}, "type": {"type": "PLAST 1100 l"}, "garbageType": "plasty"}, {"address": {"address": "Partiz\u00e1nska 66", "town": {"town": "Nitra", "region": {"region": "Nitriansk\u00fd"}}, "lat": "48.3031711", "lon": "18.052162008066027"}, "type": {"type": "PLAST 1100 l"}, "garbageType": "plasty"}, {"address": {"address": "Partiz\u00e1nska 73", "town": {"town": "Nitra", "region": {"region": "Nitriansk\u00fd"}}, "lat": "48.303173", "lon": "18.05487793318721"}, "type": {"type": "PLAST 1100 l"}, "garbageType": "plasty"}, {"address": {"address": "Partiz\u00e1nska 93", "town": {"town": "Nitra", "region": {"region": "Nitriansk\u00fd"}}, "lat": "48.30293385", "lon": "18.05309043499944"}, "type": {"type": "PLAST 1100 l"}, "garbageType": "plasty"}, {"address": {"address": "Partiz\u00e1nska 57", "town": {"town": "Nitra", "region": {"region": "Nitriansk\u00fd"}}, "lat": "48.3036422", "lon": "18.05719704092191"}, "type": {"type": "SKLO - ZVON"}, "garbageType": "sklo"}, {"address": {"address": "Partiz\u00e1nska 66", "town": {"town": "Nitra", "region": {"region": "Nitriansk\u00fd"}}, "lat": "48.3031711", "lon": "18.052162008066027"}, "type": {"type": "SKLO - ZVON"}, "garbageType": "sklo"}, {"address": {"address": "Partiz\u00e1nska 75", "town": {"town": "Nitra", "region": {"region": "Nitriansk\u00fd"}}, "lat": "48.23976735", "lon": "18.310965619911766"}, "type": {"type": "SKLO - ZVON"}, "garbageType": "sklo"}, {"address": {"address": "Partiz\u00e1nska 89", "town": {"town": "Nitra", "region": {"region": "Nitriansk\u00fd"}}, "lat": "48.3045204", "lon": "18.0578558"}, "type": {"type": "SKLO - ZVON"}, "garbageType": "sklo"}, {"address": {"address": "Partiz\u00e1nska 93", "town": {"town": "Nitra", "region": {"region": "Nitriansk\u00fd"}}, "lat": "48.30293385", "lon": "18.05309043499944"}, "type": {"type": "SKLO - ZVON"}, "garbageType": "sklo"}, {"address": {"address": "PETZWALOVA 5", "town": {"town": "Nitra", "region": {"region": "Nitriansk\u00fd"}}, "lat": "48.296186649999996", "lon": "18.057398437377966"}, "type": {"type": "PLAST 1100 l"}, "garbageType": "plasty"}, {"address": {"address": "PETZWALOVA 54", "town": {"town": "Nitra", "region": {"region": "Nitriansk\u00fd"}}, "lat": "48.29501555", "lon": "18.061559500466355"}, "type": {"type": "PLAST 1100 l"}, "garbageType": "plasty"}, {"address": {"address": "PETZWALOVA 26", "town": {"town": "Nitra", "region": {"region": "Nitriansk\u00fd"}}, "lat": "48.2961902", "lon": "18.0589618"}, "type": {"type": "PLAST 1100 l"}, "garbageType": "plasty"}, {"address": {"address": "PETZWALOVA 15", "town": {"town": "Nitra", "region": {"region": "Nitriansk\u00fd"}}, "lat": "48.2961902", "lon": "18.0589618"}, "type": {"type": "PLAST 1100 l"}, "garbageType": "plasty"}, {"address": {"address": "PETZWALOVA 12", "town": {"town": "Nitra", "region": {"region": "Nitriansk\u00fd"}}, "lat": "48.295774699999996", "lon": "18.060437300769365"}, "type": {"type": "PLAST 1100 l"}, "garbageType": "plasty"}, {"address": {"address": "PETZWALOVA 22", "town": {"town": "Nitra", "region": {"region": "Nitriansk\u00fd"}}, "lat": "48.29623615", "lon": "18.05943470065594"}, "type": {"type": "PLAST 1100 l"}, "garbageType": "plasty"}, {"address": {"address": "PETZWALOVA 34", "town": {"town": "Nitra", "region": {"region": "Nitriansk\u00fd"}}, "lat": "48.2961902", "lon": "18.0589618"}, "type": {"type": "PLAST 1100 l"}, "garbageType": "plasty"}, {"address": {"address": "PETZWALOVA 46", "town": {"town": "Nitra", "region": {"region": "Nitriansk\u00fd"}}, "lat": "48.29778615", "lon": "18.056873608333333"}, "type": {"type": "PLAST 1100 l"}, "garbageType": "plasty"}, {"address": {"address": "PETZWALOVA 58", "town": {"town": "Nitra", "region": {"region": "Nitriansk\u00fd"}}, "lat": "48.2983505", "lon": "18.0570955"}, "type": {"type": "PLAST 1100 l"}, "garbageType": "plasty"}, {"address": {"address": "PETZWALOVA 5", "town": {"town": "Nitra", "region": {"region": "Nitriansk\u00fd"}}, "lat": "48.296186649999996", "lon": "18.057398437377966"}, "type": {"type": "SKLO - ZVON"}, "garbageType": "sklo"}, {"address": {"address": "PETZWALOVA 6", "town": {"town": "Nitra", "region": {"region": "Nitriansk\u00fd"}}, "lat": "48.29481285", "lon": "18.061825772786456"}, "type": {"type": "SKLO - ZVON"}, "garbageType": "sklo"}, {"address": {"address": "PETZWALOVA 26", "town": {"town": "Nitra", "region": {"region": "Nitriansk\u00fd"}}, "lat": "48.2961902", "lon": "18.0589618"}, "type": {"type": "SKLO - ZVON"}, "garbageType": "sklo"}, {"address": {"address": "PETZWALOVA 22", "town": {"town": "Nitra", "region": {"region": "Nitriansk\u00fd"}}, "lat": "48.29623615", "lon": "18.05943470065594"}, "type": {"type": "SKLO - ZVON"}, "garbageType": "sklo"}, {"address": {"address": "PETZWALOVA 30", "town": {"town": "Nitra", "region": {"region": "Nitriansk\u00fd"}}, "lat": "48.2961902", "lon": "18.0589618"}, "type": {"type": "SKLO - ZVON"}, "garbageType": "sklo"}, {"address": {"address": "PETZWALOVA 58", "town": {"town": "Nitra", "region": {"region": "Nitriansk\u00fd"}}, "lat": "48.2983505", "lon": "18.0570955"}, "type": {"type": "SKLO - ZVON"}, "garbageType": "sklo"}, {"address": {"address": "Piaristick\u00e1 6", "town": {"town": "Nitra", "region": {"region": "Nitriansk\u00fd"}}, "lat": "48.31071855", "lon": "18.083410969040738"}, "type": {"type": "PLAST 1100 l"}, "garbageType": "plasty"}, {"address": {"address": "Pivovarsk\u00e1 1", "town": {"town": "Nitra", "region": {"region": "Nitriansk\u00fd"}}, "lat": "48.2997572", "lon": "18.081860415378813"}, "type": {"type": "PLAST 1100 l"}, "garbageType": "plasty"}, {"address": {"address": "Pivovarsk\u00e1 1", "town": {"town": "Nitra", "region": {"region": "Nitriansk\u00fd"}}, "lat": "48.2997572", "lon": "18.081860415378813"}, "type": {"type": "SKLO - ZVON"}, "garbageType": "sklo"}, {"address": {"address": "Pod Katru\u0161ou 1", "town": {"town": "Nitra", "region": {"region": "Nitriansk\u00fd"}}, "lat": "48.2836827", "lon": "18.0843995"}, "type": {"type": "PLAST 1100 l"}, "garbageType": "plasty"}, {"address": {"address": "Podz\u00e1mska 24", "town": {"town": "Nitra", "region": {"region": "Nitriansk\u00fd"}}, "lat": "48.31658095", "lon": "18.091024381175757"}, "type": {"type": "PLAST 1100 l"}, "garbageType": "plasty"}, {"address": {"address": "Popradsk\u00e1 4", "town": {"town": "Nitra", "region": {"region": "Nitriansk\u00fd"}}, "lat": "48.3050817", "lon": "18.05742518333333"}, "type": {"type": "SKLO - ZVON"}, "garbageType": "sklo"}, {"address": {"address": "Potravin\u00e1rska 6", "town": {"town": "Nitra", "region": {"region": "Nitriansk\u00fd"}}, "lat": "48.2939967", "lon": "18.07573529728173"}, "type": {"type": "PLAST 1100 l"}, "garbageType": "plasty"}, {"address": {"address": "Potravin\u00e1rska 8", "town": {"town": "Nitra", "region": {"region": "Nitriansk\u00fd"}}, "lat": "48.29446355", "lon": "18.075086257992105"}, "type": {"type": "PLAST 1100 l"}, "garbageType": "plasty"}, {"address": {"address": "Potravin\u00e1rska 7", "town": {"town": "Nitra", "region": {"region": "Nitriansk\u00fd"}}, "lat": "48.2954127", "lon": "18.0754306"}, "type": {"type": "PLAST 1100 l"}, "garbageType": "plasty"}, {"address": {"address": "Potravin\u00e1rska 17", "town": {"town": "Nitra", "region": {"region": "Nitriansk\u00fd"}}, "lat": "48.2939795", "lon": "18.0746736"}, "type": {"type": "PLAST 1100 l"}, "garbageType": "plasty"}, {"address": {"address": "Potravin\u00e1rska 18", "town": {"town": "Nitra", "region": {"region": "Nitriansk\u00fd"}}, "lat": "48.2947846", "lon": "18.07588707272179"}, "type": {"type": "PLAST 1100 l"}, "garbageType": "plasty"}, {"address": {"address": "Potravin\u00e1rska 7", "town": {"town": "Nitra", "region": {"region": "Nitriansk\u00fd"}}, "lat": "48.2941262", "lon": "18.0749343"}, "type": {"type": "SKLO - ZVON"}, "garbageType": "sklo"}, {"address": {"address": "Potravin\u00e1rska 20", "town": {"town": "Nitra", "region": {"region": "Nitriansk\u00fd"}}, "lat": "48.2949052", "lon": "18.076352272912363"}, "type": {"type": "SKLO - ZVON"}, "garbageType": "sklo"}, {"address": {"address": "Potravin\u00e1rska 22", "town": {"town": "Nitra", "region": {"region": "Nitriansk\u00fd"}}, "lat": "48.295179250000004", "lon": "18.076138644024823"}, "type": {"type": "SKLO - ZVON"}, "garbageType": "sklo"}, {"address": {"address": "Potravin\u00e1rska 23", "town": {"town": "Nitra", "region": {"region": "Nitriansk\u00fd"}}, "lat": "48.2935383", "lon": "18.0748125"}, "type": {"type": "SKLO - ZVON"}, "garbageType": "sklo"}, {"address": {"address": "Pova\u017esk\u00e1 6", "town": {"town": "Nitra", "region": {"region": "Nitriansk\u00fd"}}, "lat": "48.3042827", "lon": "18.0527987284459"}, "type": {"type": "PLAST 1100 l"}, "garbageType": "plasty"}, {"address": {"address": "Pova\u017esk\u00e1 15", "town": {"town": "Nitra", "region": {"region": "Nitriansk\u00fd"}}, "lat": "48.30439285", "lon": "18.05176080754203"}, "type": {"type": "PLAST 1100 l"}, "garbageType": "plasty"}, {"address": {"address": "Pova\u017esk\u00e1 17", "town": {"town": "Nitra", "region": {"region": "Nitriansk\u00fd"}}, "lat": "48.30443565", "lon": "18.051569877474357"}, "type": {"type": "SKLO - ZVON"}, "garbageType": "sklo"}, {"address": {"address": "Pova\u017esk\u00e1 2", "town": {"town": "Nitra", "region": {"region": "Nitriansk\u00fd"}}, "lat": "48.3040769", "lon": "18.053043654000973"}, "type": {"type": "SKLO - ZVON"}, "garbageType": "sklo"}, {"address": {"address": "Pra\u017esk\u00e1 9", "town": {"town": "Nitra - Kloko\u010dina", "region": {"region": "Nitriansk\u00fd"}}, "lat": "48.3102983", "lon": "18.0627082"}, "type": {"type": "PLAST 1100 l"}, "garbageType": "plasty"}, {"address": {"address": "Pri strelnici 7", "town": {"town": "Nitra", "region": {"region": "Nitriansk\u00fd"}}, "lat": "48.3111114", "lon": "18.1161777"}, "type": {"type": "PLAST 1100 l"}, "garbageType": "plasty"}, {"address": {"address": "Pri strelnici 7", "town": {"town": "Nitra", "region": {"region": "Nitriansk\u00fd"}}, "lat": "48.3111114", "lon": "18.1161777"}, "type": {"type": "SKLO - ZVON"}, "garbageType": "sklo"}, {"address": {"address": "Rastislavova 12", "town": {"town": "Nitra - Mlyn\u00e1rce", "region": {"region": "Nitriansk\u00fd"}}, "lat": "48.3252499", "lon": "18.0406221"}, "type": {"type": "PLAST 1100 l"}, "garbageType": "plasty"}, {"address": {"address": "Rastislavova 12", "town": {"town": "Nitra - Mlyn\u00e1rce", "region": {"region": "Nitriansk\u00fd"}}, "lat": "48.3252499", "lon": "18.0406221"}, "type": {"type": "PLAST 1100 l"}, "garbageType": "plasty"}, {"address": {"address": "R\u00e1zusova 10", "town": {"town": "Nitra", "region": {"region": "Nitriansk\u00fd"}}, "lat": "48.298857999999996", "lon": "18.08230464988018"}, "type": {"type": "PLAST 1100 l"}, "garbageType": "plasty"}, {"address": {"address": "R\u00e1zusova 10", "town": {"town": "Nitra", "region": {"region": "Nitriansk\u00fd"}}, "lat": "48.298857999999996", "lon": "18.08230464988018"}, "type": {"type": "SKLO - ZVON"}, "garbageType": "sklo"}, {"address": {"address": "Rudolfa Han\u00e1ka 1", "town": {"town": "Nitra - Chrenov\u00e1", "region": {"region": "Nitriansk\u00fd"}}, "lat": "48.313834", "lon": "18.121274"}, "type": {"type": "PLAST 1100 l"}, "garbageType": "plasty"}, {"address": {"address": "Rudolfa Han\u00e1ka 1", "town": {"town": "Nitra - Chrenov\u00e1", "region": {"region": "Nitriansk\u00fd"}}, "lat": "48.313834", "lon": "18.121274"}, "type": {"type": "SKLO - ZVON"}, "garbageType": "sklo"}, {"address": {"address": "R\u00fdnska 1", "town": {"town": "Nitra", "region": {"region": "Nitriansk\u00fd"}}, "lat": "48.30867915", "lon": "18.045687214244555"}, "type": {"type": "PLAST 1100 l"}, "garbageType": "plasty"}, {"address": {"address": "R\u00fdnska 6", "town": {"town": "Nitra", "region": {"region": "Nitriansk\u00fd"}}, "lat": "48.3074813", "lon": "18.04559632729633"}, "type": {"type": "PLAST 1100 l"}, "garbageType": "plasty"}, {"address": {"address": "R\u00fdnska 9", "town": {"town": "Nitra", "region": {"region": "Nitriansk\u00fd"}}, "lat": "48.307923450000004", "lon": "18.04621822681152"}, "type": {"type": "PLAST 1100 l"}, "garbageType": "plasty"}, {"address": {"address": "R\u00fdnska 13", "town": {"town": "Nitra", "region": {"region": "Nitriansk\u00fd"}}, "lat": "48.3070307", "lon": "18.046608991688593"}, "type": {"type": "PLAST 1100 l"}, "garbageType": "plasty"}, {"address": {"address": "R\u00fdnska 17", "town": {"town": "Nitra", "region": {"region": "Nitriansk\u00fd"}}, "lat": "48.3065963", "lon": "18.047029131755473"}, "type": {"type": "PLAST 1100 l"}, "garbageType": "plasty"}, {"address": {"address": "R\u00fdnska 1", "town": {"town": "Nitra", "region": {"region": "Nitriansk\u00fd"}}, "lat": "48.30867915", "lon": "18.045687214244555"}, "type": {"type": "SKLO - ZVON"}, "garbageType": "sklo"}, {"address": {"address": "R\u00fdnska 9", "town": {"town": "Nitra", "region": {"region": "Nitriansk\u00fd"}}, "lat": "48.307923450000004", "lon": "18.04621822681152"}, "type": {"type": "SKLO - ZVON"}, "garbageType": "sklo"}, {"address": {"address": "R\u00fdnska 13", "town": {"town": "Nitra", "region": {"region": "Nitriansk\u00fd"}}, "lat": "48.3070307", "lon": "18.046608991688593"}, "type": {"type": "SKLO - ZVON"}, "garbageType": "sklo"}, {"address": {"address": "R\u00fdnska 17", "town": {"town": "Nitra", "region": {"region": "Nitriansk\u00fd"}}, "lat": "48.3065963", "lon": "18.047029131755473"}, "type": {"type": "SKLO - ZVON"}, "garbageType": "sklo"}, {"address": {"address": "Sadov\u00e1 5", "town": {"town": "Nitra - Chrenov\u00e1", "region": {"region": "Nitriansk\u00fd"}}, "lat": "48.3063152", "lon": "18.117642776317233"}, "type": {"type": "PLAST 1100 l"}, "garbageType": "plasty"}, {"address": {"address": "SCHURMANNOVA 2", "town": {"town": "Nitra", "region": {"region": "Nitriansk\u00fd"}}, "lat": "48.31417905", "lon": "18.082579706872927"}, "type": {"type": "PLAST 1100 l"}, "garbageType": "plasty"}, {"address": {"address": "SCHURMANNOVA 5", "town": {"town": "Nitra", "region": {"region": "Nitriansk\u00fd"}}, "lat": "48.313308899999996", "lon": "18.081681743135803"}, "type": {"type": "PLAST 1100 l"}, "garbageType": "plasty"}, {"address": {"address": "SCHURMANNOVA 19", "town": {"town": "Nitra", "region": {"region": "Nitriansk\u00fd"}}, "lat": "48.3125542", "lon": "18.080252268017716"}, "type": {"type": "PLAST 1100 l"}, "garbageType": "plasty"}, {"address": {"address": "SCHURMANNOVA 19", "town": {"town": "Nitra", "region": {"region": "Nitriansk\u00fd"}}, "lat": "48.3125542", "lon": "18.080252268017716"}, "type": {"type": "SKLO - ZVON"}, "garbageType": "sklo"}, {"address": {"address": "Sitnianska 2-4", "town": {"town": "Nitra - Chrenov\u00e1", "region": {"region": "Nitriansk\u00fd"}}, "lat": "48.3107936", "lon": "18.1105251"}, "type": {"type": "MOLOK SKLO 3m3"}, "garbageType": "sklo"}, {"address": {"address": "Sitnianska 2-4", "town": {"town": "Nitra - Chrenov\u00e1", "region": {"region": "Nitriansk\u00fd"}}, "lat": "48.3107936", "lon": "18.1105251"},